[
  {
    "stop_id": "5",
    "stop_name": "WESTERLY TOWN HALL",
    "stop_lat": "41.377",
    "stop_lon": "-71.829771",
    "stop_desc": "Westerly Town Hall"
  },
  {
    "stop_id": "10",
    "stop_name": "GROVE NS WILCOX",
    "stop_lat": "41.378328",
    "stop_lon": "-71.82668",
    "stop_desc": "Grove near side of Wilcox"
  },
  {
    "stop_id": "20",
    "stop_name": "WESTERLY RAILROAD STATION",
    "stop_lat": "41.381108",
    "stop_lon": "-71.829808",
    "stop_desc": "Westerly Railroad Station"
  },
  {
    "stop_id": "25",
    "stop_name": "HIGH FS GROVE",
    "stop_lat": "41.381038",
    "stop_lon": "-71.82572",
    "stop_desc": "High far side of Grove"
  },
  {
    "stop_id": "50",
    "stop_name": "BOON OPP PERKINS",
    "stop_lat": "41.424357",
    "stop_lon": "-71.46062",
    "stop_desc": "Boon opposite Perkins"
  },
  {
    "stop_id": "55",
    "stop_name": "BOON FS PERKINS",
    "stop_lat": "41.424363",
    "stop_lon": "-71.460504",
    "stop_desc": "Boon far side of Perkins"
  },
  {
    "stop_id": "60",
    "stop_name": "S PIER OPP SUMMER",
    "stop_lat": "41.424339",
    "stop_lon": "-71.461892",
    "stop_desc": "S Pier opposite Summer"
  },
  {
    "stop_id": "65",
    "stop_name": "S PIER FS SUMMER",
    "stop_lat": "41.424602",
    "stop_lon": "-71.462071",
    "stop_desc": "S Pier far side of Summer"
  },
  {
    "stop_id": "75",
    "stop_name": "S PIER NS FRANK LOW",
    "stop_lat": "41.425304",
    "stop_lon": "-71.464052",
    "stop_desc": "S Pier near side of Frank Low"
  },
  {
    "stop_id": "80",
    "stop_name": "S PIER NS FRANK LOW",
    "stop_lat": "41.425305",
    "stop_lon": "-71.463625",
    "stop_desc": "S Pier near side of Frank Low"
  },
  {
    "stop_id": "85",
    "stop_name": "BOON NS CONGDON",
    "stop_lat": "41.425489",
    "stop_lon": "-71.459991",
    "stop_desc": "Boon near side of Congdon"
  },
  {
    "stop_id": "90",
    "stop_name": "BOON NS CONGDON",
    "stop_lat": "41.425519",
    "stop_lon": "-71.460099",
    "stop_desc": "Boon near side of Congdon"
  },
  {
    "stop_id": "95",
    "stop_name": "S PIER OPP 172 S PIER",
    "stop_lat": "41.426203",
    "stop_lon": "-71.467536",
    "stop_desc": "S Pier opposite 172 S Pier"
  },
  {
    "stop_id": "110",
    "stop_name": "BOON AT 126 BOON",
    "stop_lat": "41.427019",
    "stop_lon": "-71.459391",
    "stop_desc": "126 Boon"
  },
  {
    "stop_id": "115",
    "stop_name": "S PIER FS 172 S PIER",
    "stop_lat": "41.426116",
    "stop_lon": "-71.467565",
    "stop_desc": "S Pier far side of 172 S Pier"
  },
  {
    "stop_id": "120",
    "stop_name": "BOON FS RODMAN",
    "stop_lat": "41.427138",
    "stop_lon": "-71.45946",
    "stop_desc": "Boon far side of Rodman"
  },
  {
    "stop_id": "125",
    "stop_name": "S PIER AT NARRAGANSETT MIDDLE SCHOOL",
    "stop_lat": "41.427791",
    "stop_lon": "-71.472088",
    "stop_desc": "S Pier at Narragansett Middle School"
  },
  {
    "stop_id": "130",
    "stop_name": "SALT POND SHOPPING PLAZA (STOP&SHOP)",
    "stop_lat": "41.428327",
    "stop_lon": "-71.483315",
    "stop_desc": "Salt Pond Shopping Plaza (Stop&Shop)"
  },
  {
    "stop_id": "135",
    "stop_name": "BOON NS CENTRAL",
    "stop_lat": "41.42863",
    "stop_lon": "-71.458762",
    "stop_desc": "Boon near side of Central"
  },
  {
    "stop_id": "140",
    "stop_name": "BOON NS CENTRAL",
    "stop_lat": "41.429057",
    "stop_lon": "-71.458806",
    "stop_desc": "Boon near side of Central"
  },
  {
    "stop_id": "150",
    "stop_name": "S PIER OPP NARRAGANSETT MIDDLE SCHOOL",
    "stop_lat": "41.42755",
    "stop_lon": "-71.471847",
    "stop_desc": "S Pier opposite Narragansett Middle School"
  },
  {
    "stop_id": "155",
    "stop_name": "S PIER NS LAKEWOOD",
    "stop_lat": "41.42984",
    "stop_lon": "-71.47616",
    "stop_desc": "S Pier near side of Lakewood"
  },
  {
    "stop_id": "170",
    "stop_name": "S PIER OPP AVICE",
    "stop_lat": "41.430334",
    "stop_lon": "-71.479041",
    "stop_desc": "S Pier opposite Avice"
  },
  {
    "stop_id": "185",
    "stop_name": "KINGSTOWN AT LIBRARY",
    "stop_lat": "41.431188",
    "stop_lon": "-71.460005",
    "stop_desc": "Kingstown at Library"
  },
  {
    "stop_id": "190",
    "stop_name": "KINGSTOWN FS CASWELL",
    "stop_lat": "41.431088",
    "stop_lon": "-71.460146",
    "stop_desc": "Kingstown far side of Caswell"
  },
  {
    "stop_id": "250",
    "stop_name": "BOSTON NECK AT TOWN BEACH SOUTH PAVILION",
    "stop_lat": "41.435122",
    "stop_lon": "-71.456388",
    "stop_desc": "Boston Neck at Town Beach South Pavilion"
  },
  {
    "stop_id": "255",
    "stop_name": "BOSTON NECK - NORTH BEACH SOUTH PAVILION",
    "stop_lat": "41.435296",
    "stop_lon": "-71.456552",
    "stop_desc": "Boston Neck - North Beach South Pavilion"
  },
  {
    "stop_id": "290",
    "stop_name": "BOSTON NECK AT NARR TOWN BEACH NORTH LOT",
    "stop_lat": "41.43684",
    "stop_lon": "-71.454786",
    "stop_desc": "Boston Neck at Narragansett Town Beach North Lot"
  },
  {
    "stop_id": "295",
    "stop_name": "BOSTON NECK - NORTH BEACH ENTRANCE",
    "stop_lat": "41.437274",
    "stop_lon": "-71.454592",
    "stop_desc": "Boston Neck - North Beach Entrance"
  },
  {
    "stop_id": "300",
    "stop_name": "BOSTON NECK OPP WOOD",
    "stop_lat": "41.440814",
    "stop_lon": "-71.450822",
    "stop_desc": "Boston Neck opposite Wood"
  },
  {
    "stop_id": "305",
    "stop_name": "BOSTON NECK - NORTH BEACH CABANAS GATE 7",
    "stop_lat": "41.438177",
    "stop_lon": "-71.453131",
    "stop_desc": "Boston Neck - North Beach Cabanas Gate 7"
  },
  {
    "stop_id": "310",
    "stop_name": "MAIN AT 399 MAIN",
    "stop_lat": "41.437288",
    "stop_lon": "-71.501033",
    "stop_desc": "399 Main"
  },
  {
    "stop_id": "315",
    "stop_name": "MAIN AT 396 MAIN",
    "stop_lat": "41.437213",
    "stop_lon": "-71.500964",
    "stop_desc": "396 Main"
  },
  {
    "stop_id": "335",
    "stop_name": "MAIN OPP 249-255 MAIN",
    "stop_lat": "41.440297",
    "stop_lon": "-71.49728",
    "stop_desc": "Main opposite 249-255 Main"
  },
  {
    "stop_id": "340",
    "stop_name": "MAIN OPP ROBINSON",
    "stop_lat": "41.438867",
    "stop_lon": "-71.498868",
    "stop_desc": "Main opposite Robinson"
  },
  {
    "stop_id": "370",
    "stop_name": "MAIN OPP CLEVELAND",
    "stop_lat": "41.440945",
    "stop_lon": "-71.493886",
    "stop_desc": "Main opposite Cleveland"
  },
  {
    "stop_id": "375",
    "stop_name": "MAIN NS CHAPPELL",
    "stop_lat": "41.441236",
    "stop_lon": "-71.490843",
    "stop_desc": "Main near side of Chappell"
  },
  {
    "stop_id": "380",
    "stop_name": "BOSTON NECK FS WOOD",
    "stop_lat": "41.440426",
    "stop_lon": "-71.451033",
    "stop_desc": "Boston Neck far side of Wood"
  },
  {
    "stop_id": "390",
    "stop_name": "MAIN FS COLUMBIA",
    "stop_lat": "41.440837",
    "stop_lon": "-71.49579",
    "stop_desc": "Main far side of Columbia"
  },
  {
    "stop_id": "395",
    "stop_name": "MAIN FS CLEVELAND",
    "stop_lat": "41.440996",
    "stop_lon": "-71.494115",
    "stop_desc": "Main far side of Cleveland"
  },
  {
    "stop_id": "405",
    "stop_name": "MAIN NS HOLLEY",
    "stop_lat": "41.441449",
    "stop_lon": "-71.489655",
    "stop_desc": "Main near side of Holley"
  },
  {
    "stop_id": "415",
    "stop_name": "MAIN NS RT 108",
    "stop_lat": "41.441356",
    "stop_lon": "-71.489258",
    "stop_desc": "Main near side of Rout 108"
  },
  {
    "stop_id": "425",
    "stop_name": "OLD TOWER HILL NS RT 108",
    "stop_lat": "41.441867",
    "stop_lon": "-71.486656",
    "stop_desc": "Old Tower Hill near side of Rout 108"
  },
  {
    "stop_id": "430",
    "stop_name": "OLD TOWER HILL FS NARRAGANSETT",
    "stop_lat": "41.441923",
    "stop_lon": "-71.484458",
    "stop_desc": "Old Tower Hill far side of Narragansett"
  },
  {
    "stop_id": "435",
    "stop_name": "OLD TOWER HILL NS KELLY WAY",
    "stop_lat": "41.442563",
    "stop_lon": "-71.480573",
    "stop_desc": "Old Tower Hill near side of Kelly Way"
  },
  {
    "stop_id": "440",
    "stop_name": "OLD TOWER HILL OPP CHAMBER OF COMMERCE",
    "stop_lat": "41.44239",
    "stop_lon": "-71.480569",
    "stop_desc": "Old Tower Hill opposite Chamber of Commerce"
  },
  {
    "stop_id": "445",
    "stop_name": "HIGH AT 180 HIGH",
    "stop_lat": "41.441832",
    "stop_lon": "-71.502313",
    "stop_desc": "180 High"
  },
  {
    "stop_id": "450",
    "stop_name": "BOSTON NECK OPP STARR DR W",
    "stop_lat": "41.444056",
    "stop_lon": "-71.450569",
    "stop_desc": "Boston Neck opposite Starr Dr W"
  },
  {
    "stop_id": "455",
    "stop_name": "WAKEFIELD MALL",
    "stop_lat": "41.443701",
    "stop_lon": "-71.483301",
    "stop_desc": "Wakefield Mall"
  },
  {
    "stop_id": "460",
    "stop_name": "BOSTON NECK FS CASTLE",
    "stop_lat": "41.446304",
    "stop_lon": "-71.451148",
    "stop_desc": "Boston Neck far side of Castle"
  },
  {
    "stop_id": "465",
    "stop_name": "BOSTON NECK NS STARR DR WEST",
    "stop_lat": "41.444039",
    "stop_lon": "-71.450734",
    "stop_desc": "Boston Neck near side of Starr Dr West"
  },
  {
    "stop_id": "475",
    "stop_name": "HIGH FS TUCKER",
    "stop_lat": "41.445317",
    "stop_lon": "-71.502806",
    "stop_desc": "High far side of Tucker"
  },
  {
    "stop_id": "480",
    "stop_name": "BOSTON NECK NS CASTLE",
    "stop_lat": "41.446272",
    "stop_lon": "-71.451315",
    "stop_desc": "Boston Neck near side of Castle"
  },
  {
    "stop_id": "485",
    "stop_name": "HIGH FS OAKDELL",
    "stop_lat": "41.446838",
    "stop_lon": "-71.502613",
    "stop_desc": "High far side of Oakdell"
  },
  {
    "stop_id": "495",
    "stop_name": "RT 1 OPP WAKEFIELD MEADOWS",
    "stop_lat": "41.449051",
    "stop_lon": "-71.472449",
    "stop_desc": "Rout 1 opposite Wakefield Meadows"
  },
  {
    "stop_id": "500",
    "stop_name": "BOSTON NECK FS STARR",
    "stop_lat": "41.447528",
    "stop_lon": "-71.451146",
    "stop_desc": "Boston Neck far side of Starr"
  },
  {
    "stop_id": "505",
    "stop_name": "HIGH NS CHURCH",
    "stop_lat": "41.449313",
    "stop_lon": "-71.501386",
    "stop_desc": "High near side of Church"
  },
  {
    "stop_id": "520",
    "stop_name": "RT 1 FS HAMPTON",
    "stop_lat": "41.448753",
    "stop_lon": "-71.47328",
    "stop_desc": "Rout 1 far side of Hampton"
  },
  {
    "stop_id": "525",
    "stop_name": "BOSTON NECK OPP 483 BOSTON NECK",
    "stop_lat": "41.455159",
    "stop_lon": "-71.440324",
    "stop_desc": "Boston Neck opposite 483 Boston Neck"
  },
  {
    "stop_id": "535",
    "stop_name": "ASHAWAY PARK & RIDE (HOPKINTON)",
    "stop_lat": "41.450174",
    "stop_lon": "-71.78608",
    "stop_desc": "Ashaway Park & Ride (Hopkinton)"
  },
  {
    "stop_id": "540",
    "stop_name": "HIGH FS RT 108",
    "stop_lat": "41.450552",
    "stop_lon": "-71.500738",
    "stop_desc": "High far side of Rout 108"
  },
  {
    "stop_id": "545",
    "stop_name": "HIGH NS RT 108",
    "stop_lat": "41.4506",
    "stop_lon": "-71.500577",
    "stop_desc": "High near side of Rout 108"
  },
  {
    "stop_id": "550",
    "stop_name": "KINGSTOWN NS KERSEY RD",
    "stop_lat": "41.452806",
    "stop_lon": "-71.501864",
    "stop_desc": "Kingstown near side of Kersey Rd"
  },
  {
    "stop_id": "560",
    "stop_name": "BOSTON NECK FS OLD BOSTON NECK",
    "stop_lat": "41.453323",
    "stop_lon": "-71.442541",
    "stop_desc": "Boston Neck far side of Old Boston Neck"
  },
  {
    "stop_id": "565",
    "stop_name": "BOSTON NECK NS OLD BOSTON NECK",
    "stop_lat": "41.458531",
    "stop_lon": "-71.43584",
    "stop_desc": "Boston Neck near side of Old Boston Neck"
  },
  {
    "stop_id": "570",
    "stop_name": "KINGSTOWN OPP 1428 KINGSTOWN RD",
    "stop_lat": "41.454184",
    "stop_lon": "-71.505059",
    "stop_desc": "Kingstown opposite 1428 Kingstown Rd"
  },
  {
    "stop_id": "585",
    "stop_name": "KINGSTOWN NS MEADOWBROOK WAY",
    "stop_lat": "41.45675",
    "stop_lon": "-71.508331",
    "stop_desc": "Kingstown near side of Meadowbrook Way"
  },
  {
    "stop_id": "595",
    "stop_name": "KINGSTOWN NS SAMUEL RODMAN",
    "stop_lat": "41.459516",
    "stop_lon": "-71.508756",
    "stop_desc": "Kingstown near side of Samuel Rodman"
  },
  {
    "stop_id": "605",
    "stop_name": "BELLEVUE OPP MARBLE HOUSE",
    "stop_lat": "41.46253",
    "stop_lon": "-71.306669",
    "stop_desc": "Bellevue opposite Marble House"
  },
  {
    "stop_id": "615",
    "stop_name": "KINGSTOWN NS SAUGUATUCKET",
    "stop_lat": "41.462169",
    "stop_lon": "-71.509323",
    "stop_desc": "Kingstown near side of Sauguatucket"
  },
  {
    "stop_id": "630",
    "stop_name": "BOSTON NECK AT 483 BOSTON NECK",
    "stop_lat": "41.454983",
    "stop_lon": "-71.440326",
    "stop_desc": "483 Boston Neck"
  },
  {
    "stop_id": "635",
    "stop_name": "BOSTON NECK OPP ANAWAN CLIFF",
    "stop_lat": "41.461219",
    "stop_lon": "-71.433642",
    "stop_desc": "Boston Neck opposite Anawan Cliff"
  },
  {
    "stop_id": "640",
    "stop_name": "BOSTON NECK OPP HILLVIEW",
    "stop_lat": "41.464374",
    "stop_lon": "-71.432912",
    "stop_desc": "Boston Neck opposite Hillview"
  },
  {
    "stop_id": "645",
    "stop_name": "BOSTON NECK AT 750 BOSTON NECK",
    "stop_lat": "41.46719",
    "stop_lon": "-71.433588",
    "stop_desc": "750 Boston Neck"
  },
  {
    "stop_id": "650",
    "stop_name": "BELLEVUE OPP 541 BELLEVUE",
    "stop_lat": "41.465772",
    "stop_lon": "-71.306883",
    "stop_desc": "Bellevue opposite 541 Bellevue"
  },
  {
    "stop_id": "655",
    "stop_name": "BELLEVUE OPP ROSECLIFF",
    "stop_lat": "41.465496",
    "stop_lon": "-71.306933",
    "stop_desc": "Bellevue opposite Rosecliff"
  },
  {
    "stop_id": "665",
    "stop_name": "BOSTON NECK NS WEST BAY",
    "stop_lat": "41.469251",
    "stop_lon": "-71.433902",
    "stop_desc": "Boston Neck near side of West Bay"
  },
  {
    "stop_id": "670",
    "stop_name": "KINGSTOWN NS GREENWOOD",
    "stop_lat": "41.467617",
    "stop_lon": "-71.512248",
    "stop_desc": "Kingstown near side of Greenwood"
  },
  {
    "stop_id": "685",
    "stop_name": "KINGSTOWN OPP GREENWOOD",
    "stop_lat": "41.467638",
    "stop_lon": "-71.512128",
    "stop_desc": "Kingstown opposite Greenwood"
  },
  {
    "stop_id": "730",
    "stop_name": "RUGGLES OPP STONEACRE",
    "stop_lat": "41.468123",
    "stop_lon": "-71.305747",
    "stop_desc": "Ruggles opposite Stoneacre"
  },
  {
    "stop_id": "735",
    "stop_name": "RUGGLES OPP 204 RUGGLES",
    "stop_lat": "41.468284",
    "stop_lon": "-71.304332",
    "stop_desc": "Ruggles opposite 204 Ruggles"
  },
  {
    "stop_id": "740",
    "stop_name": "RUGGLES AT STONEACRE HOUSE",
    "stop_lat": "41.468206",
    "stop_lon": "-71.30565",
    "stop_desc": "Ruggles at Stoneacre House"
  },
  {
    "stop_id": "745",
    "stop_name": "RUGGLES AT WETMORE",
    "stop_lat": "41.468379",
    "stop_lon": "-71.302933",
    "stop_desc": "Ruggles at Wetmore"
  },
  {
    "stop_id": "750",
    "stop_name": "RUGGLES OPP CAREY MANSION",
    "stop_lat": "41.468328",
    "stop_lon": "-71.304343",
    "stop_desc": "Ruggles opposite Carey Mansion"
  },
  {
    "stop_id": "755",
    "stop_name": "RUGGLES OPP WETMORE",
    "stop_lat": "41.46851",
    "stop_lon": "-71.302897",
    "stop_desc": "Ruggles opposite Wetmore"
  },
  {
    "stop_id": "760",
    "stop_name": "RUGGLES NS OCHRE POINT",
    "stop_lat": "41.468628",
    "stop_lon": "-71.299664",
    "stop_desc": "Ruggles near side of Ochre Point"
  },
  {
    "stop_id": "775",
    "stop_name": "OCHRE POINT NS RUGGLES",
    "stop_lat": "41.468826",
    "stop_lon": "-71.299495",
    "stop_desc": "Ochre Point near side of Ruggles"
  },
  {
    "stop_id": "780",
    "stop_name": "BOSTON NECK FS MARIAN",
    "stop_lat": "41.473036",
    "stop_lon": "-71.434068",
    "stop_desc": "Boston Neck far side of Marian"
  },
  {
    "stop_id": "785",
    "stop_name": "BOSTON NECK NS BROWNING",
    "stop_lat": "41.467493",
    "stop_lon": "-71.433526",
    "stop_desc": "Boston Neck near side of Browning"
  },
  {
    "stop_id": "790",
    "stop_name": "OCHRE POINT NS VICTORIA",
    "stop_lat": "41.469948",
    "stop_lon": "-71.299707",
    "stop_desc": "Ochre Point near side of Victoria"
  },
  {
    "stop_id": "805",
    "stop_name": "KINGSTOWN NS ROLENS",
    "stop_lat": "41.469874",
    "stop_lon": "-71.513576",
    "stop_desc": "Kingstown near side of Rolens"
  },
  {
    "stop_id": "815",
    "stop_name": "KINGSTOWN OPP ROLENS",
    "stop_lat": "41.46997",
    "stop_lon": "-71.513763",
    "stop_desc": "Kingstown opposite Rolens"
  },
  {
    "stop_id": "820",
    "stop_name": "OCHRE POINT NS OHARE CENTER",
    "stop_lat": "41.470592",
    "stop_lon": "-71.29975",
    "stop_desc": "Ochre Point near side of Ohare Center"
  },
  {
    "stop_id": "830",
    "stop_name": "OCHRE POINT OPP OHARE CENTER",
    "stop_lat": "41.470963",
    "stop_lon": "-71.299939",
    "stop_desc": "Ochre Point opposite Ohare Center"
  },
  {
    "stop_id": "845",
    "stop_name": "OCHRE PONT OPP MCAULEY HALL",
    "stop_lat": "41.472293",
    "stop_lon": "-71.300172",
    "stop_desc": "Ochre Pont opposite Mcauley Hall"
  },
  {
    "stop_id": "850",
    "stop_name": "OCHRE PONT AT MCAULEY HALL",
    "stop_lat": "41.472223",
    "stop_lon": "-71.300024",
    "stop_desc": "Ochre Pont at Mcauley Hall"
  },
  {
    "stop_id": "875",
    "stop_name": "OCHRE POINT AT LEROY",
    "stop_lat": "41.473046",
    "stop_lon": "-71.300161",
    "stop_desc": "Ochre Point at Leroy"
  },
  {
    "stop_id": "880",
    "stop_name": "OCHRE POINT NS LEROY",
    "stop_lat": "41.473187",
    "stop_lon": "-71.300316",
    "stop_desc": "Ochre Point near side of Leroy"
  },
  {
    "stop_id": "885",
    "stop_name": "BOSTON NECK OPP MARIAN",
    "stop_lat": "41.4731",
    "stop_lon": "-71.433888",
    "stop_desc": "Boston Neck opposite Marian"
  },
  {
    "stop_id": "890",
    "stop_name": "BOSTON NECK AT 904 BOSTON NECK",
    "stop_lat": "41.475633",
    "stop_lon": "-71.435242",
    "stop_desc": "904 Boston Neck"
  },
  {
    "stop_id": "905",
    "stop_name": "KINGSTOWN NS WESTWIND",
    "stop_lat": "41.47106",
    "stop_lon": "-71.51468",
    "stop_desc": "Kingstown near side of Westwind"
  },
  {
    "stop_id": "910",
    "stop_name": "OCHRE POINT NS WEBSTER",
    "stop_lat": "41.474144",
    "stop_lon": "-71.300124",
    "stop_desc": "Ochre Point near side of Webster"
  },
  {
    "stop_id": "915",
    "stop_name": "OCHRE POINT NS WEBSTER",
    "stop_lat": "41.474556",
    "stop_lon": "-71.300226",
    "stop_desc": "Ochre Point near side of Webster"
  },
  {
    "stop_id": "925",
    "stop_name": "KINGSTOWN OPP WAYSIDE",
    "stop_lat": "41.474617",
    "stop_lon": "-71.517515",
    "stop_desc": "Kingstown opposite Wayside"
  },
  {
    "stop_id": "935",
    "stop_name": "KINGSTOWN OPP EAST FARM",
    "stop_lat": "41.472152",
    "stop_lon": "-71.51562",
    "stop_desc": "Kingstown opposite East Farm"
  },
  {
    "stop_id": "940",
    "stop_name": "BELLEVUE NS NARRAGANSETT",
    "stop_lat": "41.475496",
    "stop_lon": "-71.307904",
    "stop_desc": "Bellevue near side of Narragansett"
  },
  {
    "stop_id": "950",
    "stop_name": "NARRAGANSETT NS BELLEVUE",
    "stop_lat": "41.475348",
    "stop_lon": "-71.307231",
    "stop_desc": "Narragansett near side of Bellevue"
  },
  {
    "stop_id": "955",
    "stop_name": "OCHRE POINT NS NARRAGANSETT",
    "stop_lat": "41.475545",
    "stop_lon": "-71.300055",
    "stop_desc": "Ochre Point near side of Narragansett"
  },
  {
    "stop_id": "965",
    "stop_name": "NARRAGANSETT AVE OPP NEWPORT HALL",
    "stop_lat": "41.475517",
    "stop_lon": "-71.302747",
    "stop_desc": "Narragansett Ave opposite Newport Hall"
  },
  {
    "stop_id": "970",
    "stop_name": "NARRAGANSETT AT CHEPSTOW HOUSE",
    "stop_lat": "41.475495",
    "stop_lon": "-71.304955",
    "stop_desc": "Narragansett at Chepstow House"
  },
  {
    "stop_id": "975",
    "stop_name": "BOSTON NECK NS EMERY",
    "stop_lat": "41.478025",
    "stop_lon": "-71.435953",
    "stop_desc": "Boston Neck near side of Emery"
  },
  {
    "stop_id": "980",
    "stop_name": "BOSTON NECK AT 909 BOSTON NECK",
    "stop_lat": "41.475666",
    "stop_lon": "-71.435073",
    "stop_desc": "909 Boston Neck"
  },
  {
    "stop_id": "985",
    "stop_name": "NARRAGANSETT AT NARRAGANSETT HALL",
    "stop_lat": "41.475598",
    "stop_lon": "-71.302763",
    "stop_desc": "Narragansett at Narragansett Hall"
  },
  {
    "stop_id": "1010",
    "stop_name": "BELLEVUE FS DIXON",
    "stop_lat": "41.477153",
    "stop_lon": "-71.308055",
    "stop_desc": "Bellevue far side of Dixon"
  },
  {
    "stop_id": "1030",
    "stop_name": "KINGSTOWN AT 2327 KINGSTOWN RD",
    "stop_lat": "41.476133",
    "stop_lon": "-71.518739",
    "stop_desc": "2327 Kingstown Rd"
  },
  {
    "stop_id": "1035",
    "stop_name": "KINGSTOWN FS WAYSIDE",
    "stop_lat": "41.474451",
    "stop_lon": "-71.517491",
    "stop_desc": "Kingstown far side of Wayside"
  },
  {
    "stop_id": "1040",
    "stop_name": "BELLEVUE NS PERRY",
    "stop_lat": "41.479251",
    "stop_lon": "-71.308596",
    "stop_desc": "Bellevue near side of Perry"
  },
  {
    "stop_id": "1055",
    "stop_name": "BOSTON NECK OPP CONANICUS",
    "stop_lat": "41.479319",
    "stop_lon": "-71.436179",
    "stop_desc": "Boston Neck opposite Conanicus"
  },
  {
    "stop_id": "1060",
    "stop_name": "BOSTON NECK NS CONANICUS",
    "stop_lat": "41.479532",
    "stop_lon": "-71.436402",
    "stop_desc": "Boston Neck near side of Conanicus"
  },
  {
    "stop_id": "1070",
    "stop_name": "KINGSTOWN AT 2318 KINGSTOWN",
    "stop_lat": "41.475945",
    "stop_lon": "-71.518724",
    "stop_desc": "2318 Kingstown"
  },
  {
    "stop_id": "1075",
    "stop_name": "KINGSTOWN FS NORTH RD",
    "stop_lat": "41.480003",
    "stop_lon": "-71.522949",
    "stop_desc": "Kingstown far side of North Rd"
  },
  {
    "stop_id": "1080",
    "stop_name": "KINGSTOWN FS RT 138",
    "stop_lat": "41.479607",
    "stop_lon": "-71.520794",
    "stop_desc": "Kingstown far side of Rout 138"
  },
  {
    "stop_id": "1085",
    "stop_name": "KINGSTOWN AT 2579 KINGSTOWN RD",
    "stop_lat": "41.480197",
    "stop_lon": "-71.524366",
    "stop_desc": "2579 Kingstown Rd"
  },
  {
    "stop_id": "1095",
    "stop_name": "BELLEVUE FS BOWERY",
    "stop_lat": "41.480894",
    "stop_lon": "-71.308547",
    "stop_desc": "Bellevue far side of Bowery"
  },
  {
    "stop_id": "1100",
    "stop_name": "BELLEVUE FS E BOWERY",
    "stop_lat": "41.481051",
    "stop_lon": "-71.308429",
    "stop_desc": "Bellevue far side of E Bowery"
  },
  {
    "stop_id": "1120",
    "stop_name": "UPPER COLLEGE NS RT 138",
    "stop_lat": "41.48119",
    "stop_lon": "-71.525551",
    "stop_desc": "Upper College near side of Rout 138"
  },
  {
    "stop_id": "1125",
    "stop_name": "KINGSTOWN AT GRAD VILLAGE APTS",
    "stop_lat": "41.482005",
    "stop_lon": "-71.535882",
    "stop_desc": "Kingstown at Grad Village Apts"
  },
  {
    "stop_id": "1140",
    "stop_name": "LOWER COLLEGE NS BAYBERRY",
    "stop_lat": "41.482182",
    "stop_lon": "-71.529691",
    "stop_desc": "Lower College near side of Bayberry"
  },
  {
    "stop_id": "1145",
    "stop_name": "BELLEVUE OPP TENNIS HALL OF FAME",
    "stop_lat": "41.482559",
    "stop_lon": "-71.308563",
    "stop_desc": "Bellevue opposite Tennis Hall of Fame"
  },
  {
    "stop_id": "1150",
    "stop_name": "BELLEVUE AT TENNIS HALL OF FAME",
    "stop_lat": "41.48295",
    "stop_lon": "-71.308448",
    "stop_desc": "Bellevue at Tennis Hall of Fame"
  },
  {
    "stop_id": "1155",
    "stop_name": "LOWER COLLEGE OPP ST AUGUSTINES CHURCH",
    "stop_lat": "41.481905",
    "stop_lon": "-71.529871",
    "stop_desc": "Lower College opposite St Augustines Church"
  },
  {
    "stop_id": "1165",
    "stop_name": "BOSTON NECK NS MOUNTVIEW",
    "stop_lat": "41.483023",
    "stop_lon": "-71.436962",
    "stop_desc": "Boston Neck near side of Mountview"
  },
  {
    "stop_id": "1175",
    "stop_name": "KINGSTOWN FS W INDEPENDENCE",
    "stop_lat": "41.482871",
    "stop_lon": "-71.540778",
    "stop_desc": "Kingstown far side of W Independence"
  },
  {
    "stop_id": "1180",
    "stop_name": "UPPER COLLEGE NS CAMPUS",
    "stop_lat": "41.482731",
    "stop_lon": "-71.525703",
    "stop_desc": "Upper College near side of Campus"
  },
  {
    "stop_id": "1185",
    "stop_name": "UPPER COLLEGE FS CAMPUS",
    "stop_lat": "41.482725",
    "stop_lon": "-71.525816",
    "stop_desc": "Upper College far side of Campus"
  },
  {
    "stop_id": "1190",
    "stop_name": "CAMPUS AT COLLEGE OF PHARMACY",
    "stop_lat": "41.483487",
    "stop_lon": "-71.528164",
    "stop_desc": "Campus at College of Pharmacy"
  },
  {
    "stop_id": "1205",
    "stop_name": "KINGSTOWN NS WAITES CORNER",
    "stop_lat": "41.482979",
    "stop_lon": "-71.551555",
    "stop_desc": "Kingstown near side of Waites Corner"
  },
  {
    "stop_id": "1210",
    "stop_name": "BELLEVUE FS DOWNING",
    "stop_lat": "41.485734",
    "stop_lon": "-71.308748",
    "stop_desc": "Bellevue far side of Downing"
  },
  {
    "stop_id": "1215",
    "stop_name": "BELLEVUE FS PELHAM",
    "stop_lat": "41.485142",
    "stop_lon": "-71.308774",
    "stop_desc": "Bellevue far side of Pelham"
  },
  {
    "stop_id": "1225",
    "stop_name": "URI STUDENT UNION",
    "stop_lat": "41.484315",
    "stop_lon": "-71.529311",
    "stop_desc": "URI Student Union"
  },
  {
    "stop_id": "1230",
    "stop_name": "KINGSTON RAILROAD STATION",
    "stop_lat": "41.484102",
    "stop_lon": "-71.560243",
    "stop_desc": "Kingston Railroad Station"
  },
  {
    "stop_id": "1245",
    "stop_name": "BOSTON NECK OPP GARDENIA",
    "stop_lat": "41.485199",
    "stop_lon": "-71.437187",
    "stop_desc": "Boston Neck opposite Gardenia"
  },
  {
    "stop_id": "1250",
    "stop_name": "BOSTON NECK FS GARDENIA",
    "stop_lat": "41.485433",
    "stop_lon": "-71.437117",
    "stop_desc": "Boston Neck far side of Gardenia"
  },
  {
    "stop_id": "1295",
    "stop_name": "BOSTON NECK OPP 1141 BOSTON NECK",
    "stop_lat": "41.488035",
    "stop_lon": "-71.437646",
    "stop_desc": "Boston Neck opposite 1141 Boston Neck"
  },
  {
    "stop_id": "1300",
    "stop_name": "BELLEVUE NS CHURCH",
    "stop_lat": "41.487185",
    "stop_lon": "-71.309318",
    "stop_desc": "Bellevue near side of Church"
  },
  {
    "stop_id": "1305",
    "stop_name": "BELLEVUE NS ZION",
    "stop_lat": "41.487638",
    "stop_lon": "-71.309422",
    "stop_desc": "Bellevue near side of Zion"
  },
  {
    "stop_id": "1315",
    "stop_name": "TOURO NS HIGH",
    "stop_lat": "41.488671",
    "stop_lon": "-71.311134",
    "stop_desc": "Touro near side of High"
  },
  {
    "stop_id": "1330",
    "stop_name": "TOURO NS TOURO CT",
    "stop_lat": "41.489805",
    "stop_lon": "-71.314371",
    "stop_desc": "Touro near side of Touro Ct"
  },
  {
    "stop_id": "1340",
    "stop_name": "MARLBOROUGH NS THAMES",
    "stop_lat": "41.490822",
    "stop_lon": "-71.315476",
    "stop_desc": "Marlborough near side of Thames"
  },
  {
    "stop_id": "1345",
    "stop_name": "MARLBOROUGH OPP DUKE",
    "stop_lat": "41.49095",
    "stop_lon": "-71.315198",
    "stop_desc": "Marlborough opposite Duke"
  },
  {
    "stop_id": "1365",
    "stop_name": "MARLBOROUGH NS FAREWELL",
    "stop_lat": "41.491325",
    "stop_lon": "-71.313491",
    "stop_desc": "Marlborough near side of Farewell"
  },
  {
    "stop_id": "1370",
    "stop_name": "MARLBOROUGH FS BROADWAY",
    "stop_lat": "41.491412",
    "stop_lon": "-71.31281",
    "stop_desc": "Marlborough far side of Broadway"
  },
  {
    "stop_id": "1375",
    "stop_name": "NEWPORT CITY HALL",
    "stop_lat": "41.491852",
    "stop_lon": "-71.311566",
    "stop_desc": "Newport City Hall"
  },
  {
    "stop_id": "1380",
    "stop_name": "GATEWAY CENTER AT 60 BUS BERTH",
    "stop_lat": "41.491412",
    "stop_lon": "-71.317804",
    "stop_desc": "Gateway Center at 60 Bus Berth"
  },
  {
    "stop_id": "1381",
    "stop_name": "GATEWAY CENTER AT TROLLEY STOP",
    "stop_lat": "41.491752",
    "stop_lon": "-71.317621",
    "stop_desc": "Gateway Center at Trolley Stop"
  },
  {
    "stop_id": "1382",
    "stop_name": "GATEWAY CENTER AT 63 BUS BERTH",
    "stop_lat": "41.491053",
    "stop_lon": "-71.318003",
    "stop_desc": "Gateway Center at 63 Bus Berth"
  },
  {
    "stop_id": "1383",
    "stop_name": "GATEWAY CENTER AT 64 BUS BERTH",
    "stop_lat": "41.491485",
    "stop_lon": "-71.317772",
    "stop_desc": "Gateway Center at 64 Bus Berth"
  },
  {
    "stop_id": "1384",
    "stop_name": "GATEWAY CENTER AT 14 BUS BERTH",
    "stop_lat": "41.491545",
    "stop_lon": "-71.31775",
    "stop_desc": "Gateway Center at 14 Bus Berth"
  },
  {
    "stop_id": "1395",
    "stop_name": "BOSTON NECK FS S FERRY",
    "stop_lat": "41.492364",
    "stop_lon": "-71.437984",
    "stop_desc": "Boston Neck far side of S Ferry"
  },
  {
    "stop_id": "1400",
    "stop_name": "BOSTON NECK NS BRIDGETOWN",
    "stop_lat": "41.492409",
    "stop_lon": "-71.43815",
    "stop_desc": "Boston Neck near side of Bridgetown"
  },
  {
    "stop_id": "1420",
    "stop_name": "THIRD FS BRIDGE",
    "stop_lat": "41.492298",
    "stop_lon": "-71.318642",
    "stop_desc": "Third far side of Bridge"
  },
  {
    "stop_id": "1430",
    "stop_name": "BROADWAY BETWEEN COLLINS & MANN",
    "stop_lat": "41.492751",
    "stop_lon": "-71.310805",
    "stop_desc": "Broadway between Collins & Mann"
  },
  {
    "stop_id": "1435",
    "stop_name": "BROADWAY FS AYRAULT",
    "stop_lat": "41.493536",
    "stop_lon": "-71.309679",
    "stop_desc": "Broadway far side of Ayrault"
  },
  {
    "stop_id": "1450",
    "stop_name": "BOSTON LAKE NS EDGEWATER RD",
    "stop_lat": "41.494846",
    "stop_lon": "-71.437896",
    "stop_desc": "Boston Lake near side of Edgewater Rd"
  },
  {
    "stop_id": "1455",
    "stop_name": "BOSTON NECK OPP EDGEWATER",
    "stop_lat": "41.494793",
    "stop_lon": "-71.437764",
    "stop_desc": "Boston Neck opposite Edgewater"
  },
  {
    "stop_id": "1460",
    "stop_name": "TOWER HILL PARK N RIDE",
    "stop_lat": "41.495043",
    "stop_lon": "-71.456464",
    "stop_desc": "Tower Hill Park N Ride"
  },
  {
    "stop_id": "1465",
    "stop_name": "THIRD AT WALNUT",
    "stop_lat": "41.49467",
    "stop_lon": "-71.318955",
    "stop_desc": "Third at Walnut"
  },
  {
    "stop_id": "1475",
    "stop_name": "BROADWAY NS CRANSTON",
    "stop_lat": "41.49503",
    "stop_lon": "-71.308822",
    "stop_desc": "Broadway near side of Cranston"
  },
  {
    "stop_id": "1480",
    "stop_name": "BROADWAY NS EQUALITY PARK",
    "stop_lat": "41.494471",
    "stop_lon": "-71.30915",
    "stop_desc": "Broadway near side of Equality Park"
  },
  {
    "stop_id": "1495",
    "stop_name": "NARRAGANSETT FS HOWLAND",
    "stop_lat": "41.496192",
    "stop_lon": "-71.371722",
    "stop_desc": "Narragansett far side of Howland"
  },
  {
    "stop_id": "1505",
    "stop_name": "NORTH NS AT 1 NORTH RD",
    "stop_lat": "41.496551",
    "stop_lon": "-71.374702",
    "stop_desc": "North near side of at 1 North Rd"
  },
  {
    "stop_id": "1510",
    "stop_name": "BROADWAY NS CLINTON",
    "stop_lat": "41.496347",
    "stop_lon": "-71.308343",
    "stop_desc": "Broadway near side of Clinton"
  },
  {
    "stop_id": "1515",
    "stop_name": "NARRAGANSETT AT 20 NARRAGANSETT",
    "stop_lat": "41.49637",
    "stop_lon": "-71.368745",
    "stop_desc": "20 Narragansett"
  },
  {
    "stop_id": "1520",
    "stop_name": "NARRAGANSETT FS GRINNELL",
    "stop_lat": "41.496315",
    "stop_lon": "-71.371732",
    "stop_desc": "Narragansett far side of Grinnell"
  },
  {
    "stop_id": "1525",
    "stop_name": "NARRAGANSETT FS E SHORE RD",
    "stop_lat": "41.496382",
    "stop_lon": "-71.367405",
    "stop_desc": "Narragansett far side of E Shore Rd"
  },
  {
    "stop_id": "1526",
    "stop_name": "CONANICUS FS NARRAGANSETT",
    "stop_lat": "41.496595",
    "stop_lon": "-71.367009",
    "stop_desc": "Conanicus far side of Narragansett"
  },
  {
    "stop_id": "1530",
    "stop_name": "THIRD NS LASALLE",
    "stop_lat": "41.497507",
    "stop_lon": "-71.319305",
    "stop_desc": "Third near side of Lasalle"
  },
  {
    "stop_id": "1535",
    "stop_name": "BOSTON NECK FS BANFIELD",
    "stop_lat": "41.497986",
    "stop_lon": "-71.4363",
    "stop_desc": "Boston Neck far side of Banfield"
  },
  {
    "stop_id": "1540",
    "stop_name": "BROADWAY NS FRIENDSHIP",
    "stop_lat": "41.49799",
    "stop_lon": "-71.30734",
    "stop_desc": "Broadway near side of Friendship"
  },
  {
    "stop_id": "1545",
    "stop_name": "BOSTON NECK NS PETTAQUAMSCUTT LAKE",
    "stop_lat": "41.497967",
    "stop_lon": "-71.436521",
    "stop_desc": "Boston Neck near side of Pettaquamscutt Lake"
  },
  {
    "stop_id": "1555",
    "stop_name": "BROADWAY OPP FRIENDSHIP",
    "stop_lat": "41.498142",
    "stop_lon": "-71.30741",
    "stop_desc": "Broadway opposite Friendship"
  },
  {
    "stop_id": "1565",
    "stop_name": "NORTH NS VALLEY",
    "stop_lat": "41.498233",
    "stop_lon": "-71.374589",
    "stop_desc": "North near side of Valley"
  },
  {
    "stop_id": "1575",
    "stop_name": "CONANICUS FS KNOWLES",
    "stop_lat": "41.496757",
    "stop_lon": "-71.367143",
    "stop_desc": "Conanicus far side of Knowles"
  },
  {
    "stop_id": "1590",
    "stop_name": "BROADWAY NS SUMMER",
    "stop_lat": "41.499798",
    "stop_lon": "-71.306406",
    "stop_desc": "Broadway near side of Summer"
  },
  {
    "stop_id": "1595",
    "stop_name": "BROADWAY NS GIBBS",
    "stop_lat": "41.499862",
    "stop_lon": "-71.306139",
    "stop_desc": "Broadway near side of Gibbs"
  },
  {
    "stop_id": "1600",
    "stop_name": "THIRD FS CYPRESS",
    "stop_lat": "41.499988",
    "stop_lon": "-71.319747",
    "stop_desc": "Third far side of Cypress"
  },
  {
    "stop_id": "1605",
    "stop_name": "THIRD OPP CYPRESS",
    "stop_lat": "41.500429",
    "stop_lon": "-71.319726",
    "stop_desc": "Third opposite Cypress"
  },
  {
    "stop_id": "1610",
    "stop_name": "BOSTON NECK OPP RIVERDELL",
    "stop_lat": "41.500947",
    "stop_lon": "-71.433596",
    "stop_desc": "Boston Neck opposite Riverdell"
  },
  {
    "stop_id": "1615",
    "stop_name": "BOSTON NECK NS RIVERDELL",
    "stop_lat": "41.500993",
    "stop_lon": "-71.433797",
    "stop_desc": "Boston Neck near side of Riverdell"
  },
  {
    "stop_id": "1625",
    "stop_name": "BROADWAY NS BROOKS",
    "stop_lat": "41.501178",
    "stop_lon": "-71.305113",
    "stop_desc": "Broadway near side of Brooks"
  },
  {
    "stop_id": "1635",
    "stop_name": "BROADWAY NS GREEN",
    "stop_lat": "41.501871",
    "stop_lon": "-71.30471",
    "stop_desc": "Broadway near side of Green"
  },
  {
    "stop_id": "1645",
    "stop_name": "THIRD AT BAYSIDE VILLAGE",
    "stop_lat": "41.501716",
    "stop_lon": "-71.319844",
    "stop_desc": "Third at Bayside Village"
  },
  {
    "stop_id": "1650",
    "stop_name": "THIRD OPP BAYSIDE VILLAGE",
    "stop_lat": "41.501766",
    "stop_lon": "-71.320017",
    "stop_desc": "Third opposite Bayside Village"
  },
  {
    "stop_id": "1660",
    "stop_name": "BOSTON NECK NS INDIAN TRAIL",
    "stop_lat": "41.502256",
    "stop_lon": "-71.43213",
    "stop_desc": "Boston Neck near side of Indian Trail"
  },
  {
    "stop_id": "1665",
    "stop_name": "BROADWAY NS COUNTY",
    "stop_lat": "41.502906",
    "stop_lon": "-71.303693",
    "stop_desc": "Broadway near side of County"
  },
  {
    "stop_id": "1670",
    "stop_name": "BROADWAY NS THURSTON",
    "stop_lat": "41.503163",
    "stop_lon": "-71.303639",
    "stop_desc": "Broadway near side of Thurston"
  },
  {
    "stop_id": "1685",
    "stop_name": "RT 1 NS WALMSLEY LN",
    "stop_lat": "41.50376",
    "stop_lon": "-71.45929",
    "stop_desc": "Rout 1 near side of Walmsley Ln"
  },
  {
    "stop_id": "1695",
    "stop_name": "THIRD OPP DYERS GATE",
    "stop_lat": "41.503582",
    "stop_lon": "-71.320243",
    "stop_desc": "Third opposite Dyers Gate"
  },
  {
    "stop_id": "1705",
    "stop_name": "BROADWAY NS VERNON",
    "stop_lat": "41.503961",
    "stop_lon": "-71.302835",
    "stop_desc": "Broadway near side of Vernon"
  },
  {
    "stop_id": "1715",
    "stop_name": "THIRD OPP NAVAL HEALTH CLINIC",
    "stop_lat": "41.504382",
    "stop_lon": "-71.320194",
    "stop_desc": "Third opposite Naval Health Clinic"
  },
  {
    "stop_id": "1720",
    "stop_name": "BROADWAY OPP CANONICUS",
    "stop_lat": "41.505017",
    "stop_lon": "-71.301968",
    "stop_desc": "Broadway opposite Canonicus"
  },
  {
    "stop_id": "1725",
    "stop_name": "BOSTON NECK FS MINER",
    "stop_lat": "41.504953",
    "stop_lon": "-71.428414",
    "stop_desc": "Boston Neck far side of Miner"
  },
  {
    "stop_id": "1730",
    "stop_name": "BOSTON NECK NS MINER",
    "stop_lat": "41.505015",
    "stop_lon": "-71.42862",
    "stop_desc": "Boston Neck near side of Miner"
  },
  {
    "stop_id": "1735",
    "stop_name": "BROADWAY NS CANONICUS",
    "stop_lat": "41.505043",
    "stop_lon": "-71.302186",
    "stop_desc": "Broadway near side of Canonicus"
  },
  {
    "stop_id": "1745",
    "stop_name": "CONANICUS NS MT HOPE",
    "stop_lat": "41.504757",
    "stop_lon": "-71.364472",
    "stop_desc": "Conanicus near side of Mt Hope"
  },
  {
    "stop_id": "1755",
    "stop_name": "ADM KALBFUS AT AT ADMIRAL'S GATE",
    "stop_lat": "41.506695",
    "stop_lon": "-71.319325",
    "stop_desc": "Adm Kalbfus at at Admiral's Gate"
  },
  {
    "stop_id": "1760",
    "stop_name": "ADMIRAL KALBUS NS ROWLAND",
    "stop_lat": "41.50619",
    "stop_lon": "-71.302662",
    "stop_desc": "Admiral Kalbus near side of Rowland"
  },
  {
    "stop_id": "1770",
    "stop_name": "ADM KALBFUS OPP ROWLAND",
    "stop_lat": "41.506187",
    "stop_lon": "-71.302274",
    "stop_desc": "Adm Kalbfus opposite Rowland"
  },
  {
    "stop_id": "1775",
    "stop_name": "CONNELL HWAY AT NEWPORT TIRE",
    "stop_lat": "41.507682",
    "stop_lon": "-71.317696",
    "stop_desc": "Connell Hway at Newport Tire"
  },
  {
    "stop_id": "1776",
    "stop_name": "CONANICUS NS MT HOPE AVE",
    "stop_lat": "41.50488",
    "stop_lon": "-71.364623",
    "stop_desc": "Conanicus near side of Mt Hope Ave"
  },
  {
    "stop_id": "1777",
    "stop_name": "EAST SHORE NS FREEBODY (RI TURNPIKE AUTHORITY)",
    "stop_lat": "41.5111",
    "stop_lon": "-71.36526",
    "stop_desc": "East Shore near side of Freebody (RI Turnpike Authority)"
  },
  {
    "stop_id": "1780",
    "stop_name": "ADM KALBFUS NS SAGAMORE",
    "stop_lat": "41.506806",
    "stop_lon": "-71.304989",
    "stop_desc": "Adm Kalbfus near side of Sagamore"
  },
  {
    "stop_id": "1810",
    "stop_name": "ADM KALBFUS AT NEWPORT GRAND",
    "stop_lat": "41.507618",
    "stop_lon": "-71.313161",
    "stop_desc": "Adm Kalbfus at Newport Grand"
  },
  {
    "stop_id": "1820",
    "stop_name": "W MAIN NS DUDLEY",
    "stop_lat": "41.507228",
    "stop_lon": "-71.301742",
    "stop_desc": "W Main near side of Dudley"
  },
  {
    "stop_id": "1830",
    "stop_name": "ADM KALBFUS OPP NEWPORT GRAND",
    "stop_lat": "41.507898",
    "stop_lon": "-71.312605",
    "stop_desc": "Adm Kalbfus opposite Newport Grand"
  },
  {
    "stop_id": "1835",
    "stop_name": "CONNELL HWAY OPP NISSAN VOLVO",
    "stop_lat": "41.508102",
    "stop_lon": "-71.317583",
    "stop_desc": "Connell Hway opposite Nissan Volvo"
  },
  {
    "stop_id": "1850",
    "stop_name": "GIRARD NS ADM KALBFUS",
    "stop_lat": "41.508148",
    "stop_lon": "-71.311638",
    "stop_desc": "Girard near side of Adm Kalbfus"
  },
  {
    "stop_id": "1860",
    "stop_name": "GIRARD NS SUNSET",
    "stop_lat": "41.51296",
    "stop_lon": "-71.31328",
    "stop_desc": "Girard near side of Sunset"
  },
  {
    "stop_id": "1865",
    "stop_name": "CONNELL  HWAY AT NEWPORT ADULTS VIDEO",
    "stop_lat": "41.511545",
    "stop_lon": "-71.318059",
    "stop_desc": "Connell Hway at Newport Adults Video"
  },
  {
    "stop_id": "1870",
    "stop_name": "NEWPORT TOWNE CENTER (LAUNDROMAT)",
    "stop_lat": "41.511926",
    "stop_lon": "-71.317415",
    "stop_desc": "Newport Towne Center (Laundromat)"
  },
  {
    "stop_id": "1875",
    "stop_name": "BOSTON NECK NS FERRY",
    "stop_lat": "41.507607",
    "stop_lon": "-71.42496",
    "stop_desc": "Boston Neck near side of Ferry"
  },
  {
    "stop_id": "1880",
    "stop_name": "BOSTON NECK FS FERRY",
    "stop_lat": "41.507661",
    "stop_lon": "-71.425119",
    "stop_desc": "Boston Neck far side of Ferry"
  },
  {
    "stop_id": "1890",
    "stop_name": "NEWPORT TOWNE CENTER (WALMART)",
    "stop_lat": "41.510625",
    "stop_lon": "-71.316887",
    "stop_desc": "Newport Towne Center (Walmart)"
  },
  {
    "stop_id": "1895",
    "stop_name": "NEWPORT TOWNE CENTER (STOP&SHOP)",
    "stop_lat": "41.508474",
    "stop_lon": "-71.31643",
    "stop_desc": "Newport Towne Center (Stop&Shop)"
  },
  {
    "stop_id": "1900",
    "stop_name": "W MAIN AT RODEWAY INN",
    "stop_lat": "41.506577",
    "stop_lon": "-71.301524",
    "stop_desc": "W Main at Rodeway Inn"
  },
  {
    "stop_id": "1905",
    "stop_name": "HILLSIDE NS EISENHOWER",
    "stop_lat": "41.509678",
    "stop_lon": "-71.307751",
    "stop_desc": "Hillside near side of Eisenhower"
  },
  {
    "stop_id": "1915",
    "stop_name": "HILLSIDE NS BEACON",
    "stop_lat": "41.511967",
    "stop_lon": "-71.308767",
    "stop_desc": "Hillside near side of Beacon"
  },
  {
    "stop_id": "1920",
    "stop_name": "W MAIN NS STOCKTON",
    "stop_lat": "41.509392",
    "stop_lon": "-71.301921",
    "stop_desc": "W Main near side of Stockton"
  },
  {
    "stop_id": "1940",
    "stop_name": "W MAIN FS ROSEDALE",
    "stop_lat": "41.511214",
    "stop_lon": "-71.302368",
    "stop_desc": "W Main far side of Rosedale"
  },
  {
    "stop_id": "1945",
    "stop_name": "WYOMING PARK & RIDE (RICHMOND)",
    "stop_lat": "41.511973",
    "stop_lon": "-71.689832",
    "stop_desc": "Wyoming Park & Ride (Richmond)"
  },
  {
    "stop_id": "1955",
    "stop_name": "W MAIN AT 211 W MAIN",
    "stop_lat": "41.511411",
    "stop_lon": "-71.302233",
    "stop_desc": "211 W Main"
  },
  {
    "stop_id": "1975",
    "stop_name": "HILLSIDE OPP SGT GREENE",
    "stop_lat": "41.51288",
    "stop_lon": "-71.309615",
    "stop_desc": "Hillside opposite Sgt Greene"
  },
  {
    "stop_id": "1976",
    "stop_name": "HILLSIDE OPP 218 HILLSIDE",
    "stop_lat": "41.514642",
    "stop_lon": "-71.309741",
    "stop_desc": "Hillside opposite 218 Hillside"
  },
  {
    "stop_id": "1980",
    "stop_name": "W MAIN FS BEACON",
    "stop_lat": "41.513742",
    "stop_lon": "-71.301747",
    "stop_desc": "W Main far side of Beacon"
  },
  {
    "stop_id": "1990",
    "stop_name": "W MAIN FS BEACON",
    "stop_lat": "41.513881",
    "stop_lon": "-71.301579",
    "stop_desc": "W Main far side of Beacon"
  },
  {
    "stop_id": "2005",
    "stop_name": "HILLSIDE AT 216 HILLSIDE",
    "stop_lat": "41.514646",
    "stop_lon": "-71.309865",
    "stop_desc": "216 Hillside"
  },
  {
    "stop_id": "2010",
    "stop_name": "GIRARD FS FESTIVAL FIELD APTS",
    "stop_lat": "41.511682",
    "stop_lon": "-71.313096",
    "stop_desc": "Girard far side of Festival Field Apts"
  },
  {
    "stop_id": "2015",
    "stop_name": "W MAIN AT MOBIL STATION",
    "stop_lat": "41.515144",
    "stop_lon": "-71.301354",
    "stop_desc": "W Main at Mobil Station"
  },
  {
    "stop_id": "2020",
    "stop_name": "CONNELL HWAY NS MAPLE",
    "stop_lat": "41.515053",
    "stop_lon": "-71.316041",
    "stop_desc": "Connell Hway near side of Maple"
  },
  {
    "stop_id": "2025",
    "stop_name": "CONNELL OPP HILLMART",
    "stop_lat": "41.515038",
    "stop_lon": "-71.316217",
    "stop_desc": "Connell opposite Hillmart"
  },
  {
    "stop_id": "2035",
    "stop_name": "W MAIN FS SMYTHE",
    "stop_lat": "41.51556",
    "stop_lon": "-71.30103",
    "stop_desc": "W Main far side of Smythe"
  },
  {
    "stop_id": "2045",
    "stop_name": "HILLSIDE NS MAPLE",
    "stop_lat": "41.515906",
    "stop_lon": "-71.309734",
    "stop_desc": "Hillside near side of Maple"
  },
  {
    "stop_id": "2055",
    "stop_name": "MAPLE NS JOHN CHAFFEE BLVD",
    "stop_lat": "41.515894",
    "stop_lon": "-71.312682",
    "stop_desc": "Maple near side of John Chaffee Blvd"
  },
  {
    "stop_id": "2060",
    "stop_name": "MAPLE AT HEAD START CENTER",
    "stop_lat": "41.516108",
    "stop_lon": "-71.312361",
    "stop_desc": "Maple at Head Start Center"
  },
  {
    "stop_id": "2065",
    "stop_name": "BOSTON NECK OPP CHARLOTTE",
    "stop_lat": "41.516748",
    "stop_lon": "-71.423412",
    "stop_desc": "Boston Neck opposite Charlotte"
  },
  {
    "stop_id": "2070",
    "stop_name": "BOSTON NECK FS CHARLOTTE",
    "stop_lat": "41.516702",
    "stop_lon": "-71.42324",
    "stop_desc": "Boston Neck far side of Charlotte"
  },
  {
    "stop_id": "2075",
    "stop_name": "W MAIN AT BANK OF NEWPORT",
    "stop_lat": "41.517222",
    "stop_lon": "-71.300606",
    "stop_desc": "W Main at Bank of Newport"
  },
  {
    "stop_id": "2080",
    "stop_name": "E MAIN OPP NEWPORT MART",
    "stop_lat": "41.517093",
    "stop_lon": "-71.299326",
    "stop_desc": "E Main opposite Newport Mart"
  },
  {
    "stop_id": "2085",
    "stop_name": "E MAIN AT NEWPORT MARKET",
    "stop_lat": "41.517257",
    "stop_lon": "-71.299285",
    "stop_desc": "E Main at Newport Market"
  },
  {
    "stop_id": "2090",
    "stop_name": "CODDINGTON NS JOHN CHAFEE BLVD",
    "stop_lat": "41.518131",
    "stop_lon": "-71.313698",
    "stop_desc": "Coddington near side of John Chafee Blvd"
  },
  {
    "stop_id": "2100",
    "stop_name": "E MAIN OPP 114 E MAIN",
    "stop_lat": "41.517743",
    "stop_lon": "-71.297004",
    "stop_desc": "E Main opposite 114 E Main"
  },
  {
    "stop_id": "2105",
    "stop_name": "CODDINGTON NS W MAIN",
    "stop_lat": "41.518233",
    "stop_lon": "-71.300648",
    "stop_desc": "Coddington near side of W Main"
  },
  {
    "stop_id": "2125",
    "stop_name": "E MAIN AT SHELL GAS",
    "stop_lat": "41.518568",
    "stop_lon": "-71.294068",
    "stop_desc": "E Main at Shell Gas"
  },
  {
    "stop_id": "2140",
    "stop_name": "CODDINGTON OPP HARBOR BASE INN",
    "stop_lat": "41.519375",
    "stop_lon": "-71.311716",
    "stop_desc": "Coddington opposite Harbor Base Inn"
  },
  {
    "stop_id": "2145",
    "stop_name": "CODDINGTON NS NIAGRA",
    "stop_lat": "41.518598",
    "stop_lon": "-71.30307",
    "stop_desc": "Coddington near side of Niagra"
  },
  {
    "stop_id": "2150",
    "stop_name": "CODDINGTON NS JONES",
    "stop_lat": "41.518765",
    "stop_lon": "-71.304618",
    "stop_desc": "Coddington near side of Jones"
  },
  {
    "stop_id": "2155",
    "stop_name": "CODDINGTON NS SHERMAN",
    "stop_lat": "41.518855",
    "stop_lon": "-71.306072",
    "stop_desc": "Coddington near side of Sherman"
  },
  {
    "stop_id": "2165",
    "stop_name": "CODDINGTON AT BAYVIEW PARK",
    "stop_lat": "41.519018",
    "stop_lon": "-71.307398",
    "stop_desc": "Coddington at Bayview Park"
  },
  {
    "stop_id": "2170",
    "stop_name": "CODDINGTON OPP SHERMAN",
    "stop_lat": "41.519007",
    "stop_lon": "-71.305795",
    "stop_desc": "Coddington opposite Sherman"
  },
  {
    "stop_id": "2175",
    "stop_name": "CODDINGTON AT RIPTA GARAGE",
    "stop_lat": "41.519275",
    "stop_lon": "-71.309746",
    "stop_desc": "Coddington at Ripta Garage"
  },
  {
    "stop_id": "2180",
    "stop_name": "CODDINGTON OPP BAYVIEW TRAILER PARK",
    "stop_lat": "41.519162",
    "stop_lon": "-71.307064",
    "stop_desc": "Coddington opposite Bayview Trailer Park"
  },
  {
    "stop_id": "2185",
    "stop_name": "E MAIN NS VALLEY",
    "stop_lat": "41.5191",
    "stop_lon": "-71.293092",
    "stop_desc": "E Main near side of Valley"
  },
  {
    "stop_id": "2195",
    "stop_name": "W MAIN NS MAPLEWOOD",
    "stop_lat": "41.519281",
    "stop_lon": "-71.299718",
    "stop_desc": "W Main near side of Maplewood"
  },
  {
    "stop_id": "2200",
    "stop_name": "CODDINGTON OPP RIPTA GARAGE",
    "stop_lat": "41.519474",
    "stop_lon": "-71.309638",
    "stop_desc": "Coddington opposite Ripta Garage"
  },
  {
    "stop_id": "2205",
    "stop_name": "E MAIN NS ENTERPRISE DR",
    "stop_lat": "41.519548",
    "stop_lon": "-71.290906",
    "stop_desc": "E Main near side of Enterprise Dr"
  },
  {
    "stop_id": "2210",
    "stop_name": "E MAIN FS ENTERPRISE",
    "stop_lat": "41.519676",
    "stop_lon": "-71.291209",
    "stop_desc": "E Main far side of Enterprise"
  },
  {
    "stop_id": "2215",
    "stop_name": "E MAIN AT 351 E MAIN",
    "stop_lat": "41.520224",
    "stop_lon": "-71.288675",
    "stop_desc": "351 E Main"
  },
  {
    "stop_id": "2230",
    "stop_name": "VALLEY OPP CHESTNUT HILL",
    "stop_lat": "41.520791",
    "stop_lon": "-71.294159",
    "stop_desc": "Valley opposite Chestnut Hill"
  },
  {
    "stop_id": "2235",
    "stop_name": "W MAIN NS OAKWOOD",
    "stop_lat": "41.521651",
    "stop_lon": "-71.298915",
    "stop_desc": "W Main near side of Oakwood"
  },
  {
    "stop_id": "2240",
    "stop_name": "E MAIN NS FOREST",
    "stop_lat": "41.521046",
    "stop_lon": "-71.285532",
    "stop_desc": "E Main near side of Forest"
  },
  {
    "stop_id": "2245",
    "stop_name": "BOSTON NECK FS HOMESTEAD",
    "stop_lat": "41.521254",
    "stop_lon": "-71.424046",
    "stop_desc": "Boston Neck far side of Homestead"
  },
  {
    "stop_id": "2250",
    "stop_name": "BOSTON NECK OPP SNUFF MILL",
    "stop_lat": "41.52242",
    "stop_lon": "-71.423628",
    "stop_desc": "Boston Neck opposite Snuff Mill"
  },
  {
    "stop_id": "2255",
    "stop_name": "E MAIN NS FOREST",
    "stop_lat": "41.521104",
    "stop_lon": "-71.285845",
    "stop_desc": "E Main near side of Forest"
  },
  {
    "stop_id": "2260",
    "stop_name": "RT 1 AT 2299 TOWER HILL",
    "stop_lat": "41.51492",
    "stop_lon": "-71.461385",
    "stop_desc": "Rout 1 at 2299 Tower Hill"
  },
  {
    "stop_id": "2265",
    "stop_name": "E MAIN NS AQUIDNECK",
    "stop_lat": "41.521684",
    "stop_lon": "-71.283372",
    "stop_desc": "E Main near side of Aquidneck"
  },
  {
    "stop_id": "2270",
    "stop_name": "E MAIN FS AQUIDNECK",
    "stop_lat": "41.521665",
    "stop_lon": "-71.28407",
    "stop_desc": "E Main far side of Aquidneck"
  },
  {
    "stop_id": "2275",
    "stop_name": "RT 1 FS SHERMANTOWN",
    "stop_lat": "41.52401",
    "stop_lon": "-71.4648",
    "stop_desc": "Rout 1 far side of Shermantown"
  },
  {
    "stop_id": "2280",
    "stop_name": "VALLEY OPP NAPA AUTO",
    "stop_lat": "41.521838",
    "stop_lon": "-71.29474",
    "stop_desc": "Valley opposite Napa Auto"
  },
  {
    "stop_id": "2285",
    "stop_name": "E MAIN AT 644 E MAIN",
    "stop_lat": "41.52421",
    "stop_lon": "-71.279173",
    "stop_desc": "644 E Main"
  },
  {
    "stop_id": "2290",
    "stop_name": "E MAIN FS WYATT",
    "stop_lat": "41.52286",
    "stop_lon": "-71.281137",
    "stop_desc": "E Main far side of Wyatt"
  },
  {
    "stop_id": "2295",
    "stop_name": "W MAIN AT MIDDLETOWN PUBLIC LIBRARY",
    "stop_lat": "41.521907",
    "stop_lon": "-71.299019",
    "stop_desc": "W Main at Middletown Public Library"
  },
  {
    "stop_id": "2300",
    "stop_name": "W MAIN NS VALLEY",
    "stop_lat": "41.523402",
    "stop_lon": "-71.298232",
    "stop_desc": "W Main near side of Valley"
  },
  {
    "stop_id": "2305",
    "stop_name": "VALLEY NS W MAIN",
    "stop_lat": "41.523824",
    "stop_lon": "-71.297541",
    "stop_desc": "Valley near side of W Main"
  },
  {
    "stop_id": "2310",
    "stop_name": "W MAIN OPP VALLEY",
    "stop_lat": "41.52402",
    "stop_lon": "-71.298223",
    "stop_desc": "W Main opposite Valley"
  },
  {
    "stop_id": "2315",
    "stop_name": "W MAIN FS WOOLSEY",
    "stop_lat": "41.524878",
    "stop_lon": "-71.29768",
    "stop_desc": "W Main far side of Woolsey"
  },
  {
    "stop_id": "2320",
    "stop_name": "BOSTON NECK OPP 1865 BOSTON NECK",
    "stop_lat": "41.524558",
    "stop_lon": "-71.423991",
    "stop_desc": "Boston Neck opposite 1865 Boston Neck"
  },
  {
    "stop_id": "2325",
    "stop_name": "BOSTON NECK NS BARBERS HEIGHTS",
    "stop_lat": "41.524298",
    "stop_lon": "-71.424082",
    "stop_desc": "Boston Neck near side of Barbers Heights"
  },
  {
    "stop_id": "2335",
    "stop_name": "W MAIN NS CHASES",
    "stop_lat": "41.525923",
    "stop_lon": "-71.297526",
    "stop_desc": "W Main near side of Chases"
  },
  {
    "stop_id": "2340",
    "stop_name": "E MAIN NS TURNER",
    "stop_lat": "41.52588",
    "stop_lon": "-71.276159",
    "stop_desc": "E Main near side of Turner"
  },
  {
    "stop_id": "2345",
    "stop_name": "E MAIN OPP TURNER",
    "stop_lat": "41.526101",
    "stop_lon": "-71.276117",
    "stop_desc": "E Main opposite Turner"
  },
  {
    "stop_id": "2360",
    "stop_name": "RT 1A & RT 138 PARK&RIDE (curbside)",
    "stop_lat": "41.526992",
    "stop_lon": "-71.425556",
    "stop_desc": "Rout 1A & Rout 138 Park&Ride (Curbside)"
  },
  {
    "stop_id": "2361",
    "stop_name": "TASHTASSUCK FS HELM",
    "stop_lat": "41.525592",
    "stop_lon": "-71.385276",
    "stop_desc": "Tashtassuck far side of Helm"
  },
  {
    "stop_id": "2365",
    "stop_name": "W MAIN AT ALL SAINTS ACADEMY",
    "stop_lat": "41.527304",
    "stop_lon": "-71.296415",
    "stop_desc": "W Main at All Saints Academy"
  },
  {
    "stop_id": "2370",
    "stop_name": "BOSTON NECK NS RT-138 WEST [ON-RAMP]",
    "stop_lat": "41.530551",
    "stop_lon": "-71.428171",
    "stop_desc": "Boston Neck near side of Rt-138 West on-ramp"
  },
  {
    "stop_id": "2380",
    "stop_name": "NUWC GATE 17",
    "stop_lat": "41.529203",
    "stop_lon": "-71.307644",
    "stop_desc": "NUWC Gate 17"
  },
  {
    "stop_id": "2385",
    "stop_name": "W MAIN AT 936 W MAIN",
    "stop_lat": "41.528018",
    "stop_lon": "-71.296217",
    "stop_desc": "936 W Main"
  },
  {
    "stop_id": "2390",
    "stop_name": "E MAIN OPP CHAVES GARDENS",
    "stop_lat": "41.530294",
    "stop_lon": "-71.272856",
    "stop_desc": "E Main opposite Chaves Gardens"
  },
  {
    "stop_id": "2395",
    "stop_name": "E MAIN NS MEADOW LN",
    "stop_lat": "41.529703",
    "stop_lon": "-71.273136",
    "stop_desc": "E Main near side of Meadow Ln"
  },
  {
    "stop_id": "2405",
    "stop_name": "W MAIN AT 999 W MAIN (PLAZA)",
    "stop_lat": "41.529581",
    "stop_lon": "-71.294749",
    "stop_desc": "W Main at 999 W Main (Plaza)"
  },
  {
    "stop_id": "2410",
    "stop_name": "W MAIN OPP 999 W MAIN",
    "stop_lat": "41.529655",
    "stop_lon": "-71.294937",
    "stop_desc": "W Main opposite 999 W Main"
  },
  {
    "stop_id": "2415",
    "stop_name": "W MAIN NS FOREST",
    "stop_lat": "41.530666",
    "stop_lon": "-71.293986",
    "stop_desc": "W Main near side of Forest"
  },
  {
    "stop_id": "2425",
    "stop_name": "W MAIN OPP FOREST",
    "stop_lat": "41.53102",
    "stop_lon": "-71.293965",
    "stop_desc": "W Main opposite Forest"
  },
  {
    "stop_id": "2430",
    "stop_name": "E MAIN NS OLIPHANT",
    "stop_lat": "41.53186",
    "stop_lon": "-71.271331",
    "stop_desc": "E Main near side of Oliphant"
  },
  {
    "stop_id": "2435",
    "stop_name": "E MAIN NS OLIPHANT",
    "stop_lat": "41.532157",
    "stop_lon": "-71.271246",
    "stop_desc": "E Main near side of Oliphant"
  },
  {
    "stop_id": "2440",
    "stop_name": "W MAIN NS VANICEK",
    "stop_lat": "41.532627",
    "stop_lon": "-71.293429",
    "stop_desc": "W Main near side of Vanicek"
  },
  {
    "stop_id": "2445",
    "stop_name": "W MAIN AT CARDI'S FURNITURE",
    "stop_lat": "41.533073",
    "stop_lon": "-71.29307",
    "stop_desc": "W Main at Cardi's Furniture"
  },
  {
    "stop_id": "2455",
    "stop_name": "W MAIN NS BRIGHT IDEAS",
    "stop_lat": "41.534933",
    "stop_lon": "-71.292692",
    "stop_desc": "W Main near side of Bright Ideas"
  },
  {
    "stop_id": "2460",
    "stop_name": "W MAIN AT MIDDLETOWN SQUARE PLAZA",
    "stop_lat": "41.534557",
    "stop_lon": "-71.292583",
    "stop_desc": "W Main at Middletown Square Plaza"
  },
  {
    "stop_id": "2470",
    "stop_name": "W MAIN NS BROWNS LANE SHOPPING CTR",
    "stop_lat": "41.53788",
    "stop_lon": "-71.291856",
    "stop_desc": "W Main near side of Browns Lane Shopping Ctr"
  },
  {
    "stop_id": "2475",
    "stop_name": "STOP&SHOP (WEST MAIN ROAD - MIDDLETOWN)",
    "stop_lat": "41.536636",
    "stop_lon": "-71.293336",
    "stop_desc": "Stop&Shop (West Main Road - Middletown)"
  },
  {
    "stop_id": "2480",
    "stop_name": "W MAIN AT 1397 W MAIN",
    "stop_lat": "41.537387",
    "stop_lon": "-71.291786",
    "stop_desc": "1397 W Main"
  },
  {
    "stop_id": "2490",
    "stop_name": "RT 1 NS SHADY LEA",
    "stop_lat": "41.538606",
    "stop_lon": "-71.468498",
    "stop_desc": "Rout 1 near side of Shady Lea"
  },
  {
    "stop_id": "2495",
    "stop_name": "E MAIN OPP MITCHELL",
    "stop_lat": "41.538183",
    "stop_lon": "-71.265849",
    "stop_desc": "E Main opposite Mitchell"
  },
  {
    "stop_id": "2500",
    "stop_name": "E MAIN NS MITCHELLS",
    "stop_lat": "41.537955",
    "stop_lon": "-71.265797",
    "stop_desc": "E Main near side of Mitchells"
  },
  {
    "stop_id": "2505",
    "stop_name": "BOSTON NECK OPP GILBERT STUART RD",
    "stop_lat": "41.538758",
    "stop_lon": "-71.438657",
    "stop_desc": "Boston Neck opposite Gilbert Stuart Rd"
  },
  {
    "stop_id": "2510",
    "stop_name": "BOSTON NECK NS GILBERT STUART RD",
    "stop_lat": "41.538893",
    "stop_lon": "-71.438993",
    "stop_desc": "Boston Neck near side of Gilbert Stuart Rd"
  },
  {
    "stop_id": "2515",
    "stop_name": "W MAIN OPP 1522 W MAIN",
    "stop_lat": "41.539573",
    "stop_lon": "-71.291406",
    "stop_desc": "W Main opposite 1522 W Main"
  },
  {
    "stop_id": "2520",
    "stop_name": "W MAIN NS SQUANTUM",
    "stop_lat": "41.540951",
    "stop_lon": "-71.291684",
    "stop_desc": "W Main near side of Squantum"
  },
  {
    "stop_id": "2525",
    "stop_name": "E MAIN NS WOODLAND",
    "stop_lat": "41.541306",
    "stop_lon": "-71.263527",
    "stop_desc": "E Main near side of Woodland"
  },
  {
    "stop_id": "2530",
    "stop_name": "E MAIN OPP RANDALL",
    "stop_lat": "41.540815",
    "stop_lon": "-71.264004",
    "stop_desc": "E Main opposite Randall"
  },
  {
    "stop_id": "2535",
    "stop_name": "W MAIN OPP SQUANTUM",
    "stop_lat": "41.540978",
    "stop_lon": "-71.291483",
    "stop_desc": "W Main opposite Squantum"
  },
  {
    "stop_id": "2540",
    "stop_name": "E MAIN FS PAQUINS LN",
    "stop_lat": "41.544789",
    "stop_lon": "-71.261351",
    "stop_desc": "E Main far side of Paquins Ln"
  },
  {
    "stop_id": "2545",
    "stop_name": "E MAIN FS SELINA",
    "stop_lat": "41.545417",
    "stop_lon": "-71.260693",
    "stop_desc": "E Main far side of Selina"
  },
  {
    "stop_id": "2550",
    "stop_name": "W MAIN NS THELMA",
    "stop_lat": "41.543549",
    "stop_lon": "-71.29165",
    "stop_desc": "W Main near side of Thelma"
  },
  {
    "stop_id": "2555",
    "stop_name": "BOSTON NECK FS WEAVER (southern intersection)",
    "stop_lat": "41.543739",
    "stop_lon": "-71.441227",
    "stop_desc": "Boston Neck far side of Weaver (Southern Intersection)"
  },
  {
    "stop_id": "2560",
    "stop_name": "BOSTON NECK OPP WEAVER",
    "stop_lat": "41.54407",
    "stop_lon": "-71.441132",
    "stop_desc": "Boston Neck opposite Weaver"
  },
  {
    "stop_id": "2565",
    "stop_name": "W MAIN FS MARSHALL",
    "stop_lat": "41.545131",
    "stop_lon": "-71.291846",
    "stop_desc": "W Main far side of Marshall"
  },
  {
    "stop_id": "2570",
    "stop_name": "OXBOW APTS",
    "stop_lat": "41.543701",
    "stop_lon": "-71.292799",
    "stop_desc": "Oxbow Apts"
  },
  {
    "stop_id": "2575",
    "stop_name": "E MAIN AT AQUIDNECK CHRISTIAN ACADEMY",
    "stop_lat": "41.546435",
    "stop_lon": "-71.259947",
    "stop_desc": "E Main at Aquidneck Christian Academy"
  },
  {
    "stop_id": "2585",
    "stop_name": "RT 4 FS W ALLENTON",
    "stop_lat": "41.545561",
    "stop_lon": "-71.477161",
    "stop_desc": "Rout 4 far side of W Allenton"
  },
  {
    "stop_id": "2595",
    "stop_name": "W MAIN AT 1776 W MAIN",
    "stop_lat": "41.546547",
    "stop_lon": "-71.292033",
    "stop_desc": "1776 W Main"
  },
  {
    "stop_id": "2600",
    "stop_name": "W MAIN AT 1761 W MAIN",
    "stop_lat": "41.546223",
    "stop_lon": "-71.291778",
    "stop_desc": "1761 W Main"
  },
  {
    "stop_id": "2605",
    "stop_name": "W MAIN NS GREEN LANE",
    "stop_lat": "41.548501",
    "stop_lon": "-71.29217",
    "stop_desc": "W Main near side of Green Lane"
  },
  {
    "stop_id": "2610",
    "stop_name": "BOSTON NECK FS WEAVER & HAMILTON ALLENTON RD",
    "stop_lat": "41.548185",
    "stop_lon": "-71.441464",
    "stop_desc": "Boston Neck far side of Weaver & Hamilton Allenton Rd"
  },
  {
    "stop_id": "2615",
    "stop_name": "BOSTON NECK NS SALISBURY",
    "stop_lat": "41.548244",
    "stop_lon": "-71.441313",
    "stop_desc": "Boston Neck near side of Salisbury"
  },
  {
    "stop_id": "2620",
    "stop_name": "W MAIN NS PASTURE FARMS",
    "stop_lat": "41.54818",
    "stop_lon": "-71.291973",
    "stop_desc": "W Main near side of Pasture Farms"
  },
  {
    "stop_id": "2625",
    "stop_name": "E MAIN NS SANDY POINT",
    "stop_lat": "41.550809",
    "stop_lon": "-71.25766",
    "stop_desc": "E Main near side of Sandy Point"
  },
  {
    "stop_id": "2630",
    "stop_name": "E MAIN OPP SANDY PT",
    "stop_lat": "41.550787",
    "stop_lon": "-71.257789",
    "stop_desc": "E Main opposite Sandy Pt"
  },
  {
    "stop_id": "2640",
    "stop_name": "BOSTON NECK NS WALDRON",
    "stop_lat": "41.552523",
    "stop_lon": "-71.44077",
    "stop_desc": "Boston Neck near side of Waldron"
  },
  {
    "stop_id": "2650",
    "stop_name": "BOSTON NECK OPP EARL",
    "stop_lat": "41.55469",
    "stop_lon": "-71.441097",
    "stop_desc": "Boston Neck opposite Earl"
  },
  {
    "stop_id": "2660",
    "stop_name": "BOSTON NECK OPP DUCK COVE",
    "stop_lat": "41.557389",
    "stop_lon": "-71.443037",
    "stop_desc": "Boston Neck opposite Duck Cove"
  },
  {
    "stop_id": "2665",
    "stop_name": "E MAIN NS UNION",
    "stop_lat": "41.558025",
    "stop_lon": "-71.25534",
    "stop_desc": "E Main near side of Union"
  },
  {
    "stop_id": "2670",
    "stop_name": "E MAIN AT 880 E MAIN",
    "stop_lat": "41.558492",
    "stop_lon": "-71.255379",
    "stop_desc": "880 E Main"
  },
  {
    "stop_id": "2675",
    "stop_name": "BOSTON NECK FS EARLE",
    "stop_lat": "41.554835",
    "stop_lon": "-71.440886",
    "stop_desc": "Boston Neck far side of Earle"
  },
  {
    "stop_id": "2680",
    "stop_name": "BOSTON NECK AT 429 BOSTON NECK",
    "stop_lat": "41.558566",
    "stop_lon": "-71.443893",
    "stop_desc": "429 Boston Neck"
  },
  {
    "stop_id": "2685",
    "stop_name": "W MAIN NS UNION",
    "stop_lat": "41.558869",
    "stop_lon": "-71.287668",
    "stop_desc": "W Main near side of Union"
  },
  {
    "stop_id": "2695",
    "stop_name": "BOSTON NECK FS DUCK COVE",
    "stop_lat": "41.557597",
    "stop_lon": "-71.442932",
    "stop_desc": "Boston Neck far side of Duck Cove"
  },
  {
    "stop_id": "2700",
    "stop_name": "BOSTON NECK AT 392 BOSTON NECK",
    "stop_lat": "41.559494",
    "stop_lon": "-71.444361",
    "stop_desc": "392 Boston Neck"
  },
  {
    "stop_id": "2705",
    "stop_name": "BOSTON NECK NS FAIRWAY",
    "stop_lat": "41.560442",
    "stop_lon": "-71.445238",
    "stop_desc": "Boston Neck near side of Fairway"
  },
  {
    "stop_id": "2710",
    "stop_name": "W MAIL OPP MAIL COACH",
    "stop_lat": "41.560639",
    "stop_lon": "-71.286754",
    "stop_desc": "W Mail opposite Mail Coach"
  },
  {
    "stop_id": "2715",
    "stop_name": "E MAIN NS GLEN",
    "stop_lat": "41.561009",
    "stop_lon": "-71.25419",
    "stop_desc": "E Main near side of Glen"
  },
  {
    "stop_id": "2720",
    "stop_name": "BOSTON NECK OPP 270 BOSTON NECK",
    "stop_lat": "41.562044",
    "stop_lon": "-71.446391",
    "stop_desc": "Boston Neck opposite 270 Boston Neck"
  },
  {
    "stop_id": "2725",
    "stop_name": "BOSTON NECK FS BEACH",
    "stop_lat": "41.565576",
    "stop_lon": "-71.448756",
    "stop_desc": "Boston Neck far side of Beach"
  },
  {
    "stop_id": "2730",
    "stop_name": "BOSTON NECK AT 270 BOSTON NECK",
    "stop_lat": "41.562423",
    "stop_lon": "-71.446428",
    "stop_desc": "270 Boston Neck"
  },
  {
    "stop_id": "2735",
    "stop_name": "W MAIN AT 2243 W MAIN",
    "stop_lat": "41.562712",
    "stop_lon": "-71.286128",
    "stop_desc": "2243 W Main"
  },
  {
    "stop_id": "2740",
    "stop_name": "E MAIN OPP GLEN RD",
    "stop_lat": "41.561224",
    "stop_lon": "-71.254288",
    "stop_desc": "E Main opposite Glen Rd"
  },
  {
    "stop_id": "2745",
    "stop_name": "BOSTON NECK OPP REYNOLDS",
    "stop_lat": "41.56659",
    "stop_lon": "-71.449903",
    "stop_desc": "Boston Neck opposite Reynolds"
  },
  {
    "stop_id": "2750",
    "stop_name": "BOSTON NECK NS BEACH",
    "stop_lat": "41.565429",
    "stop_lon": "-71.448489",
    "stop_desc": "Boston Neck near side of Beach"
  },
  {
    "stop_id": "2755",
    "stop_name": "W MAIN OPP 2243 W MAIN",
    "stop_lat": "41.562254",
    "stop_lon": "-71.286129",
    "stop_desc": "W Main opposite 2243 W Main"
  },
  {
    "stop_id": "2760",
    "stop_name": "BAYVIEW APARTMENTS",
    "stop_lat": "41.565974",
    "stop_lon": "-71.284734",
    "stop_desc": "Bayview Apartments"
  },
  {
    "stop_id": "2765",
    "stop_name": "BOSTON NECK NS REYNOLDS",
    "stop_lat": "41.566631",
    "stop_lon": "-71.449809",
    "stop_desc": "Boston Neck near side of Reynolds"
  },
  {
    "stop_id": "2770",
    "stop_name": "E MAIN NS EYLER",
    "stop_lat": "41.568236",
    "stop_lon": "-71.251127",
    "stop_desc": "E Main near side of Eyler"
  },
  {
    "stop_id": "2775",
    "stop_name": "E MAIN NS BEAUPRE",
    "stop_lat": "41.565429",
    "stop_lon": "-71.25262",
    "stop_desc": "E Main near side of Beaupre"
  },
  {
    "stop_id": "2780",
    "stop_name": "BOSTON NECK AT 45 BOSTON NECK",
    "stop_lat": "41.567678",
    "stop_lon": "-71.451148",
    "stop_desc": "45 Boston Neck"
  },
  {
    "stop_id": "2785",
    "stop_name": "W MAIN FS RAYTHEON ENTRANCE",
    "stop_lat": "41.56988",
    "stop_lon": "-71.277513",
    "stop_desc": "W Main far side of Raytheon Entrance"
  },
  {
    "stop_id": "2810",
    "stop_name": "W MAIN OPP RAYTHEON",
    "stop_lat": "41.570219",
    "stop_lon": "-71.276863",
    "stop_desc": "W Main opposite Raytheon"
  },
  {
    "stop_id": "2815",
    "stop_name": "PHILLIPS AT 84 PHILLIPS",
    "stop_lat": "41.568111",
    "stop_lon": "-71.454952",
    "stop_desc": "84 Phillips"
  },
  {
    "stop_id": "2850",
    "stop_name": "RT 4 NS LAFAYETTE",
    "stop_lat": "41.57158",
    "stop_lon": "-71.49305",
    "stop_desc": "Rout 4 near side of Lafayette"
  },
  {
    "stop_id": "2870",
    "stop_name": "E MAIN NS MCCORRIE",
    "stop_lat": "41.572289",
    "stop_lon": "-71.250954",
    "stop_desc": "E Main near side of Mccorrie"
  },
  {
    "stop_id": "2875",
    "stop_name": "E MAIN OPP MCCORRIE",
    "stop_lat": "41.57263",
    "stop_lon": "-71.251185",
    "stop_desc": "E Main opposite Mccorrie"
  },
  {
    "stop_id": "2890",
    "stop_name": "W MAIN OPP SCOTTY DR",
    "stop_lat": "41.575695",
    "stop_lon": "-71.271663",
    "stop_desc": "W Main opposite Scotty Dr"
  },
  {
    "stop_id": "2900",
    "stop_name": "POST FS SUMMIT VIEW",
    "stop_lat": "41.572506",
    "stop_lon": "-71.462092",
    "stop_desc": "Post far side of Summit View"
  },
  {
    "stop_id": "2910",
    "stop_name": "E MAIN OPP MARTENS",
    "stop_lat": "41.575163",
    "stop_lon": "-71.251429",
    "stop_desc": "E Main opposite Martens"
  },
  {
    "stop_id": "2915",
    "stop_name": "W MAIN NS JOHN",
    "stop_lat": "41.575644",
    "stop_lon": "-71.271918",
    "stop_desc": "W Main near side of John"
  },
  {
    "stop_id": "2920",
    "stop_name": "POST OPP JUNIPER",
    "stop_lat": "41.575557",
    "stop_lon": "-71.461085",
    "stop_desc": "Post opposite Juniper"
  },
  {
    "stop_id": "2925",
    "stop_name": "POST NS JUNIPER",
    "stop_lat": "41.575742",
    "stop_lon": "-71.461147",
    "stop_desc": "Post near side of Juniper"
  },
  {
    "stop_id": "2930",
    "stop_name": "W MAIN OPP STRINGHAM",
    "stop_lat": "41.577688",
    "stop_lon": "-71.270929",
    "stop_desc": "W Main opposite Stringham"
  },
  {
    "stop_id": "2935",
    "stop_name": "POST NS INTREPID",
    "stop_lat": "41.577911",
    "stop_lon": "-71.460353",
    "stop_desc": "Post near side of Intrepid"
  },
  {
    "stop_id": "2940",
    "stop_name": "W MAIN AT 1575 W MAIN",
    "stop_lat": "41.577411",
    "stop_lon": "-71.271286",
    "stop_desc": "1575 W Main"
  },
  {
    "stop_id": "2945",
    "stop_name": "POST FS INTREPID",
    "stop_lat": "41.577687",
    "stop_lon": "-71.460236",
    "stop_desc": "Post far side of Intrepid"
  },
  {
    "stop_id": "2950",
    "stop_name": "W MAIN NS MILL",
    "stop_lat": "41.57916",
    "stop_lon": "-71.270422",
    "stop_desc": "W Main near side of Mill"
  },
  {
    "stop_id": "2960",
    "stop_name": "E MAIN FS SHERWOOD",
    "stop_lat": "41.578243",
    "stop_lon": "-71.251991",
    "stop_desc": "E Main far side of Sherwood"
  },
  {
    "stop_id": "2965",
    "stop_name": "W MAIN OPP MILL",
    "stop_lat": "41.579202",
    "stop_lon": "-71.270591",
    "stop_desc": "W Main opposite Mill"
  },
  {
    "stop_id": "2970",
    "stop_name": "E MAIN NS MARVEL",
    "stop_lat": "41.574725",
    "stop_lon": "-71.251519",
    "stop_desc": "E Main near side of Marvel"
  },
  {
    "stop_id": "2975",
    "stop_name": "E MAIN NS FAIRVIEW",
    "stop_lat": "41.579942",
    "stop_lon": "-71.252284",
    "stop_desc": "E Main near side of Fairview"
  },
  {
    "stop_id": "2980",
    "stop_name": "RT 2 AT BALD HILL GARDEN CTR",
    "stop_lat": "41.574248",
    "stop_lon": "-71.516335",
    "stop_desc": "Rout 2 at Bald Hill Garden Ctr"
  },
  {
    "stop_id": "2995",
    "stop_name": "RT 2 FS HOME DEPOT ENTRANCE",
    "stop_lat": "41.584437",
    "stop_lon": "-71.500866",
    "stop_desc": "Rout 2 far side of Home Depot Entrance"
  },
  {
    "stop_id": "29966",
    "stop_name": "RT 2 NS HOME DEPOT ENTRANCE",
    "stop_lat": "41.584441",
    "stop_lon": "-71.500986",
    "stop_desc": "Rout 2 near side of Home Depot Entrance"
  },
  {
    "stop_id": "3000",
    "stop_name": "E MAIN BETWEEN ETHEL & PINE TREE",
    "stop_lat": "41.583748",
    "stop_lon": "-71.252218",
    "stop_desc": "E Main between Ethel & Pine Tree"
  },
  {
    "stop_id": "3005",
    "stop_name": "E MAIN AT 1944 E MAIN",
    "stop_lat": "41.583889",
    "stop_lon": "-71.252424",
    "stop_desc": "1944 E Main"
  },
  {
    "stop_id": "3010",
    "stop_name": "POST NS HULING",
    "stop_lat": "41.58539",
    "stop_lon": "-71.458818",
    "stop_desc": "Post near side of Huling"
  },
  {
    "stop_id": "3020",
    "stop_name": "E MAIN AT 2050 E MAIN",
    "stop_lat": "41.587071",
    "stop_lon": "-71.252806",
    "stop_desc": "2050 E Main"
  },
  {
    "stop_id": "3030",
    "stop_name": "W MAIN OPP MELVILLE ELEMENTARY",
    "stop_lat": "41.583198",
    "stop_lon": "-71.269433",
    "stop_desc": "W Main opposite Melville Elementary"
  },
  {
    "stop_id": "3035",
    "stop_name": "E MAIN FS LEPES",
    "stop_lat": "41.585827",
    "stop_lon": "-71.252207",
    "stop_desc": "E Main far side of Lepes"
  },
  {
    "stop_id": "3040",
    "stop_name": "POST OPP 7805 POST",
    "stop_lat": "41.585783",
    "stop_lon": "-71.458554",
    "stop_desc": "Post opposite 7805 Post"
  },
  {
    "stop_id": "3045",
    "stop_name": "POST OPP 7760 POST",
    "stop_lat": "41.586855",
    "stop_lon": "-71.45845",
    "stop_desc": "Post opposite 7760 Post"
  },
  {
    "stop_id": "3055",
    "stop_name": "W MAIN NS BRADFORD",
    "stop_lat": "41.583362",
    "stop_lon": "-71.269629",
    "stop_desc": "W Main near side of Bradford"
  },
  {
    "stop_id": "3060",
    "stop_name": "POST AT 7708 POST",
    "stop_lat": "41.588263",
    "stop_lon": "-71.457887",
    "stop_desc": "7708 Post"
  },
  {
    "stop_id": "3070",
    "stop_name": "W MAIN FS KING CHARLES",
    "stop_lat": "41.59131",
    "stop_lon": "-71.266769",
    "stop_desc": "W Main far side of King Charles"
  },
  {
    "stop_id": "3075",
    "stop_name": "W MAIN NS KING CHARLES",
    "stop_lat": "41.591357",
    "stop_lon": "-71.266927",
    "stop_desc": "W Main near side of King Charles"
  },
  {
    "stop_id": "3080",
    "stop_name": "POST NS OAKDALE",
    "stop_lat": "41.590047",
    "stop_lon": "-71.457417",
    "stop_desc": "Post near side of Oakdale"
  },
  {
    "stop_id": "3085",
    "stop_name": "POST NS OAKDALE",
    "stop_lat": "41.59032",
    "stop_lon": "-71.457545",
    "stop_desc": "Post near side of Oakdale"
  },
  {
    "stop_id": "3090",
    "stop_name": "E MAIN NS SEA MEADOW",
    "stop_lat": "41.587144",
    "stop_lon": "-71.252631",
    "stop_desc": "E Main near side of Sea Meadow"
  },
  {
    "stop_id": "3095",
    "stop_name": "E MAIN ND HEDLY",
    "stop_lat": "41.59042",
    "stop_lon": "-71.253728",
    "stop_desc": "E Main Nd Hedly"
  },
  {
    "stop_id": "3100",
    "stop_name": "E MAIN AT PORTSMOUTH POLICE HQ",
    "stop_lat": "41.592158",
    "stop_lon": "-71.253521",
    "stop_desc": "E Main at Portsmouth Police HQ"
  },
  {
    "stop_id": "3105",
    "stop_name": "E MAIN NS HEDLY",
    "stop_lat": "41.590066",
    "stop_lon": "-71.253504",
    "stop_desc": "E Main near side of Hedly"
  },
  {
    "stop_id": "3110",
    "stop_name": "POST AT 1540 POST",
    "stop_lat": "41.592592",
    "stop_lon": "-71.456677",
    "stop_desc": "1540 Post"
  },
  {
    "stop_id": "3115",
    "stop_name": "POST OPP 7540 POST",
    "stop_lat": "41.592667",
    "stop_lon": "-71.456803",
    "stop_desc": "Post opposite 7540 Post"
  },
  {
    "stop_id": "3120",
    "stop_name": "W MAIN OPP HEDLY",
    "stop_lat": "41.594099",
    "stop_lon": "-71.264963",
    "stop_desc": "W Main opposite Hedly"
  },
  {
    "stop_id": "3130",
    "stop_name": "POST AT 7440 POST",
    "stop_lat": "41.595082",
    "stop_lon": "-71.455897",
    "stop_desc": "7440 Post"
  },
  {
    "stop_id": "3145",
    "stop_name": "E MAIN AT RITE AID",
    "stop_lat": "41.596872",
    "stop_lon": "-71.251729",
    "stop_desc": "E Main at Rite Aid"
  },
  {
    "stop_id": "3150",
    "stop_name": "E MAIN AT 2451 E MAIN",
    "stop_lat": "41.596877",
    "stop_lon": "-71.251507",
    "stop_desc": "2451 E Main"
  },
  {
    "stop_id": "3155",
    "stop_name": "POST FS CAMP",
    "stop_lat": "41.5976",
    "stop_lon": "-71.455157",
    "stop_desc": "Post far side of Camp"
  },
  {
    "stop_id": "3170",
    "stop_name": "POST AT 7260 POST",
    "stop_lat": "41.599779",
    "stop_lon": "-71.454724",
    "stop_desc": "7260 Post"
  },
  {
    "stop_id": "3175",
    "stop_name": "E MAIN AT 2588 E MAIN",
    "stop_lat": "41.600347",
    "stop_lon": "-71.250171",
    "stop_desc": "2588 E Main"
  },
  {
    "stop_id": "3180",
    "stop_name": "POST AT 7277 POST",
    "stop_lat": "41.60079",
    "stop_lon": "-71.454867",
    "stop_desc": "7277 Post"
  },
  {
    "stop_id": "3185",
    "stop_name": "E MAIN FS TURNPIKE",
    "stop_lat": "41.601115",
    "stop_lon": "-71.249393",
    "stop_desc": "E Main far side of Turnpike"
  },
  {
    "stop_id": "3190",
    "stop_name": "E MAIN FS FREEBORN",
    "stop_lat": "41.601241",
    "stop_lon": "-71.249489",
    "stop_desc": "E Main far side of Freeborn"
  },
  {
    "stop_id": "3195",
    "stop_name": "E MAIN NS CHURCH LN",
    "stop_lat": "41.6019",
    "stop_lon": "-71.248235",
    "stop_desc": "E Main near side of Church Ln"
  },
  {
    "stop_id": "3210",
    "stop_name": "W MAIN FS FREEBORN",
    "stop_lat": "41.604163",
    "stop_lon": "-71.258605",
    "stop_desc": "W Main far side of Freeborn"
  },
  {
    "stop_id": "3215",
    "stop_name": "E MAIN AT 2708 E MAIN",
    "stop_lat": "41.602887",
    "stop_lon": "-71.247628",
    "stop_desc": "2708 E Main"
  },
  {
    "stop_id": "3225",
    "stop_name": "E MAIN NS POWER",
    "stop_lat": "41.606115",
    "stop_lon": "-71.247038",
    "stop_desc": "E Main near side of Power"
  },
  {
    "stop_id": "3230",
    "stop_name": "E MAIN OPP POWER",
    "stop_lat": "41.606127",
    "stop_lon": "-71.247176",
    "stop_desc": "E Main opposite Power"
  },
  {
    "stop_id": "3235",
    "stop_name": "RT 2 & RT 4 PARK&RIDE (curbside)",
    "stop_lat": "41.611758",
    "stop_lon": "-71.492429",
    "stop_desc": "Rout 2 & Rout 4 Park&Ride (Curbside)"
  },
  {
    "stop_id": "3250",
    "stop_name": "POST NS DEVILS FOOT",
    "stop_lat": "41.607345",
    "stop_lon": "-71.455929",
    "stop_desc": "Post near side of Devils Foot"
  },
  {
    "stop_id": "3265",
    "stop_name": "W MAIN OPP FREEBORN",
    "stop_lat": "41.604075",
    "stop_lon": "-71.258807",
    "stop_desc": "W Main opposite Freeborn"
  },
  {
    "stop_id": "3280",
    "stop_name": "E MAIN NS VILLAGE WAY",
    "stop_lat": "41.610542",
    "stop_lon": "-71.246461",
    "stop_desc": "E Main near side of Village Way"
  },
  {
    "stop_id": "3285",
    "stop_name": "W MAIN OPP 372 W MAIN",
    "stop_lat": "41.605575",
    "stop_lon": "-71.25901",
    "stop_desc": "W Main opposite 372 W Main"
  },
  {
    "stop_id": "3290",
    "stop_name": "E MAIN OPP VILLAGE WAY",
    "stop_lat": "41.610829",
    "stop_lon": "-71.246584",
    "stop_desc": "E Main opposite Village Way"
  },
  {
    "stop_id": "3295",
    "stop_name": "POST AT 6851 POST",
    "stop_lat": "41.611184",
    "stop_lon": "-71.457249",
    "stop_desc": "6851 Post"
  },
  {
    "stop_id": "3300",
    "stop_name": "POST NS 6946 POST",
    "stop_lat": "41.608966",
    "stop_lon": "-71.456226",
    "stop_desc": "Post near side of 6946 Post"
  },
  {
    "stop_id": "3310",
    "stop_name": "RT 2 NS WAITES CORNER",
    "stop_lat": "41.495237",
    "stop_lon": "-71.569583",
    "stop_desc": "Rout 2 near side of Waites Corner"
  },
  {
    "stop_id": "3315",
    "stop_name": "W MAIN OPP ANSELMO",
    "stop_lat": "41.611053",
    "stop_lon": "-71.260148",
    "stop_desc": "W Main opposite Anselmo"
  },
  {
    "stop_id": "3320",
    "stop_name": "W MAIN OPP WILLOW LN",
    "stop_lat": "41.613465",
    "stop_lon": "-71.258178",
    "stop_desc": "W Main opposite Willow Ln"
  },
  {
    "stop_id": "3325",
    "stop_name": "POST NS KING PHILLIP",
    "stop_lat": "41.614106",
    "stop_lon": "-71.457702",
    "stop_desc": "Post near side of King Phillip"
  },
  {
    "stop_id": "3330",
    "stop_name": "W MAIN NS WILLOW",
    "stop_lat": "41.61356",
    "stop_lon": "-71.258247",
    "stop_desc": "W Main near side of Willow"
  },
  {
    "stop_id": "3335",
    "stop_name": "POST AT 6854 POST",
    "stop_lat": "41.611386",
    "stop_lon": "-71.457048",
    "stop_desc": "6854 Post"
  },
  {
    "stop_id": "3340",
    "stop_name": "E MAIN OPP SPRAGUE",
    "stop_lat": "41.614854",
    "stop_lon": "-71.245837",
    "stop_desc": "E Main opposite Sprague"
  },
  {
    "stop_id": "3345",
    "stop_name": "E MAIN AT 3124 E MAIN",
    "stop_lat": "41.613898",
    "stop_lon": "-71.246113",
    "stop_desc": "3124 E Main"
  },
  {
    "stop_id": "3355",
    "stop_name": "E MAIN OPP IRVING GAS",
    "stop_lat": "41.617523",
    "stop_lon": "-71.246125",
    "stop_desc": "E Main opposite Irving Gas"
  },
  {
    "stop_id": "3360",
    "stop_name": "BRISTOL FERRY FS SPRAGUE",
    "stop_lat": "41.615384",
    "stop_lon": "-71.256218",
    "stop_desc": "Bristol Ferry far side of Sprague"
  },
  {
    "stop_id": "3370",
    "stop_name": "E MAIN OPP 3281 E MAIN",
    "stop_lat": "41.617327",
    "stop_lon": "-71.246244",
    "stop_desc": "E Main opposite 3281 E Main"
  },
  {
    "stop_id": "3375",
    "stop_name": "POST FS KINGSTOWN PLAZA ENTRANCE",
    "stop_lat": "41.616003",
    "stop_lon": "-71.457993",
    "stop_desc": "Post far side of Kingstown Plaza Entrance"
  },
  {
    "stop_id": "3380",
    "stop_name": "POST NS CHADSEY",
    "stop_lat": "41.61389",
    "stop_lon": "-71.457551",
    "stop_desc": "Post near side of Chadsey"
  },
  {
    "stop_id": "3385",
    "stop_name": "BRISTOL FERRY FS BROWNELL",
    "stop_lat": "41.618021",
    "stop_lon": "-71.256829",
    "stop_desc": "Bristol Ferry far side of Brownell"
  },
  {
    "stop_id": "3400",
    "stop_name": "POST AT 6669 POST",
    "stop_lat": "41.616754",
    "stop_lon": "-71.457783",
    "stop_desc": "6669 Post"
  },
  {
    "stop_id": "3415",
    "stop_name": "E MAIN NS PARK",
    "stop_lat": "41.620046",
    "stop_lon": "-71.245345",
    "stop_desc": "E Main near side of Park"
  },
  {
    "stop_id": "3420",
    "stop_name": "E MAIN FS BASIN",
    "stop_lat": "41.62006",
    "stop_lon": "-71.245481",
    "stop_desc": "E Main far side of Basin"
  },
  {
    "stop_id": "3430",
    "stop_name": "POST AT KINGSTOWN MOTEL",
    "stop_lat": "41.620094",
    "stop_lon": "-71.458086",
    "stop_desc": "Post at Kingstown Motel"
  },
  {
    "stop_id": "3435",
    "stop_name": "POST OPP PEACHTREE",
    "stop_lat": "41.621529",
    "stop_lon": "-71.458508",
    "stop_desc": "Post opposite Peachtree"
  },
  {
    "stop_id": "3440",
    "stop_name": "POST FS PEACHTREE",
    "stop_lat": "41.621954",
    "stop_lon": "-71.458258",
    "stop_desc": "Post far side of Peachtree"
  },
  {
    "stop_id": "3445",
    "stop_name": "E MAIN NS ECHO",
    "stop_lat": "41.621496",
    "stop_lon": "-71.244826",
    "stop_desc": "E Main near side of Echo"
  },
  {
    "stop_id": "3450",
    "stop_name": "E MAIN OPP 66 E MAIN",
    "stop_lat": "41.621968",
    "stop_lon": "-71.244379",
    "stop_desc": "E Main opposite 66 E Main"
  },
  {
    "stop_id": "3455",
    "stop_name": "BRISTOL FERRY OPP CORY CT",
    "stop_lat": "41.619745",
    "stop_lon": "-71.256794",
    "stop_desc": "Bristol Ferry opposite Cory Ct"
  },
  {
    "stop_id": "3460",
    "stop_name": "BRISTOL FERRY NS BROWNELL",
    "stop_lat": "41.617924",
    "stop_lon": "-71.256983",
    "stop_desc": "Bristol Ferry near side of Brownell"
  },
  {
    "stop_id": "3465",
    "stop_name": "BRISTOL FERRY FS CORY CT",
    "stop_lat": "41.619542",
    "stop_lon": "-71.256959",
    "stop_desc": "Bristol Ferry far side of Cory Ct"
  },
  {
    "stop_id": "3470",
    "stop_name": "E MAIN FS FOUNDERS",
    "stop_lat": "41.623382",
    "stop_lon": "-71.243862",
    "stop_desc": "E Main far side of Founders"
  },
  {
    "stop_id": "3475",
    "stop_name": "E MAIN OPP FOUNDERS",
    "stop_lat": "41.623309",
    "stop_lon": "-71.243716",
    "stop_desc": "E Main opposite Founders"
  },
  {
    "stop_id": "3485",
    "stop_name": "BRISTOL FERRY OPP SCHOONER",
    "stop_lat": "41.621112",
    "stop_lon": "-71.256892",
    "stop_desc": "Bristol Ferry opposite Schooner"
  },
  {
    "stop_id": "3490",
    "stop_name": "BRISTOL FERRY OPP BOTELHO",
    "stop_lat": "41.624208",
    "stop_lon": "-71.256236",
    "stop_desc": "Bristol Ferry opposite Botelho"
  },
  {
    "stop_id": "3495",
    "stop_name": "POST OPP MEMORIAL CEMETARY",
    "stop_lat": "41.624623",
    "stop_lon": "-71.459199",
    "stop_desc": "Post opposite Memorial Cemetary"
  },
  {
    "stop_id": "3505",
    "stop_name": "E MAIN OPP SUNSET",
    "stop_lat": "41.625488",
    "stop_lon": "-71.242659",
    "stop_desc": "E Main opposite Sunset"
  },
  {
    "stop_id": "3510",
    "stop_name": "E MAIN FS SUNSET",
    "stop_lat": "41.625436",
    "stop_lon": "-71.242934",
    "stop_desc": "E Main far side of Sunset"
  },
  {
    "stop_id": "3515",
    "stop_name": "BRISTOL FERRY AT 309 BRISTOL FERRY",
    "stop_lat": "41.623391",
    "stop_lon": "-71.256264",
    "stop_desc": "309 Bristol Ferry"
  },
  {
    "stop_id": "3520",
    "stop_name": "BRISTOL FERRY FS MITCHELL",
    "stop_lat": "41.626572",
    "stop_lon": "-71.255615",
    "stop_desc": "Bristol Ferry far side of Mitchell"
  },
  {
    "stop_id": "3525",
    "stop_name": "POST OPP ESSEX",
    "stop_lat": "41.627417",
    "stop_lon": "-71.461362",
    "stop_desc": "Post opposite Essex"
  },
  {
    "stop_id": "3530",
    "stop_name": "POST NS ESSEX",
    "stop_lat": "41.627133",
    "stop_lon": "-71.460971",
    "stop_desc": "Post near side of Essex"
  },
  {
    "stop_id": "3535",
    "stop_name": "BRISTOL FERRY AT 531 BRISTOL FERRY",
    "stop_lat": "41.628846",
    "stop_lon": "-71.254782",
    "stop_desc": "531 Bristol Ferry"
  },
  {
    "stop_id": "3545",
    "stop_name": "BOYDS LANE OPP OLD BOYDS",
    "stop_lat": "41.630135",
    "stop_lon": "-71.245619",
    "stop_desc": "Boyds Lane opposite Old Boyds"
  },
  {
    "stop_id": "3550",
    "stop_name": "BOYDS LANE FS RTE. 24",
    "stop_lat": "41.627633",
    "stop_lon": "-71.243603",
    "stop_desc": "Boyds Lane far side of Rte. 24"
  },
  {
    "stop_id": "3555",
    "stop_name": "POST AT 6145 POST",
    "stop_lat": "41.62958",
    "stop_lon": "-71.46335",
    "stop_desc": "6145 Post"
  },
  {
    "stop_id": "3560",
    "stop_name": "POST FS AUSTIN",
    "stop_lat": "41.630653",
    "stop_lon": "-71.464234",
    "stop_desc": "Post far side of Austin"
  },
  {
    "stop_id": "3565",
    "stop_name": "BOYDS LANE OPP LINDA",
    "stop_lat": "41.631401",
    "stop_lon": "-71.249659",
    "stop_desc": "Boyds Lane opposite Linda"
  },
  {
    "stop_id": "3570",
    "stop_name": "BOYDS LANE FS BRISTOL FERRY",
    "stop_lat": "41.632202",
    "stop_lon": "-71.252939",
    "stop_desc": "Boyds Lane far side of Bristol Ferry"
  },
  {
    "stop_id": "3575",
    "stop_name": "BRISTOL FERRY NS PORTERS",
    "stop_lat": "41.630756",
    "stop_lon": "-71.254268",
    "stop_desc": "Bristol Ferry near side of Porters"
  },
  {
    "stop_id": "3580",
    "stop_name": "BRISTOL FERRY FS SHORELINE TERRACE",
    "stop_lat": "41.631742",
    "stop_lon": "-71.253824",
    "stop_desc": "Bristol Ferry far side of Shoreline Terrace"
  },
  {
    "stop_id": "3585",
    "stop_name": "POST AT 6000 POST",
    "stop_lat": "41.63205",
    "stop_lon": "-71.46607",
    "stop_desc": "6000 Post"
  },
  {
    "stop_id": "3595",
    "stop_name": "POST OPP JT'S BUILDING SUPPLY",
    "stop_lat": "41.63225",
    "stop_lon": "-71.466835",
    "stop_desc": "Post opposite Jt's Building Supply"
  },
  {
    "stop_id": "3600",
    "stop_name": "POST OPP FRANKLIN",
    "stop_lat": "41.635455",
    "stop_lon": "-71.467982",
    "stop_desc": "Post opposite Franklin"
  },
  {
    "stop_id": "3605",
    "stop_name": "POST NS FRENCHTOWN",
    "stop_lat": "41.633667",
    "stop_lon": "-71.468373",
    "stop_desc": "Post near side of Frenchtown"
  },
  {
    "stop_id": "3610",
    "stop_name": "POST FS 5804 POST",
    "stop_lat": "41.637661",
    "stop_lon": "-71.468383",
    "stop_desc": "Post far side of 5804 Post"
  },
  {
    "stop_id": "3615",
    "stop_name": "POST NS FRANKLIN",
    "stop_lat": "41.63559",
    "stop_lon": "-71.46826",
    "stop_desc": "Post near side of Franklin"
  },
  {
    "stop_id": "3620",
    "stop_name": "POST AT 5805 POST",
    "stop_lat": "41.637543",
    "stop_lon": "-71.468649",
    "stop_desc": "5805 Post"
  },
  {
    "stop_id": "3630",
    "stop_name": "POST AT 5732 POST",
    "stop_lat": "41.639642",
    "stop_lon": "-71.468654",
    "stop_desc": "5732 Post"
  },
  {
    "stop_id": "3635",
    "stop_name": "POST FS VICTORY",
    "stop_lat": "41.643157",
    "stop_lon": "-71.46582",
    "stop_desc": "Post far side of Victory"
  },
  {
    "stop_id": "3637",
    "stop_name": "POST FS GRANDVIEW",
    "stop_lat": "41.639686",
    "stop_lon": "-71.468924",
    "stop_desc": "Post far side of Grandview"
  },
  {
    "stop_id": "3640",
    "stop_name": "POST NS OVERFIELD",
    "stop_lat": "41.645987",
    "stop_lon": "-71.463324",
    "stop_desc": "Post near side of Overfield"
  },
  {
    "stop_id": "3642",
    "stop_name": "POST AT 5627 POST",
    "stop_lat": "41.641866",
    "stop_lon": "-71.467425",
    "stop_desc": "5627 Post"
  },
  {
    "stop_id": "3645",
    "stop_name": "POST NS S PIERCE",
    "stop_lat": "41.642591",
    "stop_lon": "-71.466082",
    "stop_desc": "Post near side of S Pierce"
  },
  {
    "stop_id": "3650",
    "stop_name": "POST FS CROSSWAYS",
    "stop_lat": "41.647525",
    "stop_lon": "-71.461489",
    "stop_desc": "Post far side of Crossways"
  },
  {
    "stop_id": "3655",
    "stop_name": "POST FS OVERFIELD",
    "stop_lat": "41.64589",
    "stop_lon": "-71.463222",
    "stop_desc": "Post far side of Overfield"
  },
  {
    "stop_id": "3660",
    "stop_name": "FERRY RD FS LOW LN",
    "stop_lat": "41.647682",
    "stop_lon": "-71.26214",
    "stop_desc": "Ferry Rd far side of Low Ln"
  },
  {
    "stop_id": "3665",
    "stop_name": "POST NS 5329 POST",
    "stop_lat": "41.648469",
    "stop_lon": "-71.459995",
    "stop_desc": "Post near side of 5329 Post"
  },
  {
    "stop_id": "3670",
    "stop_name": "FERRY RD AT ROGER WILLIAMS UNIV",
    "stop_lat": "41.647994",
    "stop_lon": "-71.261906",
    "stop_desc": "Ferry Rd at Roger Williams Univ"
  },
  {
    "stop_id": "3675",
    "stop_name": "POST NS FORGE",
    "stop_lat": "41.6484",
    "stop_lon": "-71.45979",
    "stop_desc": "Post near side of Forge"
  },
  {
    "stop_id": "3690",
    "stop_name": "MAIN OPP 1001 MAIN",
    "stop_lat": "41.650908",
    "stop_lon": "-71.457277",
    "stop_desc": "Main opposite 1001 Main"
  },
  {
    "stop_id": "3695",
    "stop_name": "MAIN FS 1003 MAIN",
    "stop_lat": "41.650827",
    "stop_lon": "-71.457636",
    "stop_desc": "Main far side of 1003 Main"
  },
  {
    "stop_id": "3715",
    "stop_name": "MAIN FS SIXTH",
    "stop_lat": "41.652498",
    "stop_lon": "-71.455939",
    "stop_desc": "Main far side of Sixth"
  },
  {
    "stop_id": "3720",
    "stop_name": "MAIN NS SIXTH",
    "stop_lat": "41.652498",
    "stop_lon": "-71.456194",
    "stop_desc": "Main near side of Sixth"
  },
  {
    "stop_id": "3725",
    "stop_name": "FERRY RD NS AMBROSE",
    "stop_lat": "41.653555",
    "stop_lon": "-71.264463",
    "stop_desc": "Ferry Rd near side of Ambrose"
  },
  {
    "stop_id": "3730",
    "stop_name": "FERRY OPP AMBROSE",
    "stop_lat": "41.653477",
    "stop_lon": "-71.264526",
    "stop_desc": "Ferry opposite Ambrose"
  },
  {
    "stop_id": "3740",
    "stop_name": "MAIN NS THIRD",
    "stop_lat": "41.654247",
    "stop_lon": "-71.454834",
    "stop_desc": "Main near side of Third"
  },
  {
    "stop_id": "3745",
    "stop_name": "MAIN NS THIRD",
    "stop_lat": "41.654053",
    "stop_lon": "-71.454768",
    "stop_desc": "Main near side of Third"
  },
  {
    "stop_id": "3750",
    "stop_name": "FERRY RD FS SIDNEY",
    "stop_lat": "41.655351",
    "stop_lon": "-71.265123",
    "stop_desc": "Ferry Rd far side of Sidney"
  },
  {
    "stop_id": "3755",
    "stop_name": "FERRY OPP SIDNEY",
    "stop_lat": "41.655229",
    "stop_lon": "-71.265166",
    "stop_desc": "Ferry opposite Sidney"
  },
  {
    "stop_id": "3760",
    "stop_name": "MAIN AT 640 MAIN",
    "stop_lat": "41.655663",
    "stop_lon": "-71.45357",
    "stop_desc": "640 Main"
  },
  {
    "stop_id": "3765",
    "stop_name": "MAIN NS FIRST",
    "stop_lat": "41.655687",
    "stop_lon": "-71.453711",
    "stop_desc": "Main near side of First"
  },
  {
    "stop_id": "3775",
    "stop_name": "FIRST OPP CLIFF",
    "stop_lat": "41.65591",
    "stop_lon": "-71.455198",
    "stop_desc": "First opposite Cliff"
  },
  {
    "stop_id": "3800",
    "stop_name": "MAIN FS VINE",
    "stop_lat": "41.656561",
    "stop_lon": "-71.452678",
    "stop_desc": "Main far side of Vine"
  },
  {
    "stop_id": "3805",
    "stop_name": "MAIN OPP BRIDGE",
    "stop_lat": "41.65688",
    "stop_lon": "-71.452515",
    "stop_desc": "Main opposite Bridge"
  },
  {
    "stop_id": "3810",
    "stop_name": "EXIT 7 PARK 'N' RIDE (WEST GREENWICH)",
    "stop_lat": "41.656876",
    "stop_lon": "-71.551366",
    "stop_desc": "Exit 7 Park 'n' Ride (West Greenwich)"
  },
  {
    "stop_id": "3815",
    "stop_name": "FERRY AT 133 FERRY RD",
    "stop_lat": "41.65738",
    "stop_lon": "-71.265976",
    "stop_desc": "133 Ferry Rd"
  },
  {
    "stop_id": "3820",
    "stop_name": "FERRY RD NS GRISWOLD",
    "stop_lat": "41.657236",
    "stop_lon": "-71.265835",
    "stop_desc": "Ferry Rd near side of Griswold"
  },
  {
    "stop_id": "3835",
    "stop_name": "MAIN NS UNION",
    "stop_lat": "41.657862",
    "stop_lon": "-71.451207",
    "stop_desc": "Main near side of Union"
  },
  {
    "stop_id": "3840",
    "stop_name": "MAIN OPP UNION",
    "stop_lat": "41.657919",
    "stop_lon": "-71.451392",
    "stop_desc": "Main opposite Union"
  },
  {
    "stop_id": "3855",
    "stop_name": "METACOM NS GRISWOLD",
    "stop_lat": "41.65903",
    "stop_lon": "-71.258745",
    "stop_desc": "Metacom near side of Griswold"
  },
  {
    "stop_id": "3860",
    "stop_name": "MAIN FS LONDON",
    "stop_lat": "41.658912",
    "stop_lon": "-71.450137",
    "stop_desc": "Main far side of London"
  },
  {
    "stop_id": "3865",
    "stop_name": "FERRY RD NS FAIRVIEW",
    "stop_lat": "41.659269",
    "stop_lon": "-71.266562",
    "stop_desc": "Ferry Rd near side of Fairview"
  },
  {
    "stop_id": "3870",
    "stop_name": "METACOM NS GRISWOLD",
    "stop_lat": "41.659357",
    "stop_lon": "-71.258791",
    "stop_desc": "Metacom near side of Griswold"
  },
  {
    "stop_id": "3885",
    "stop_name": "MAIN NS PIERCE",
    "stop_lat": "41.658974",
    "stop_lon": "-71.450268",
    "stop_desc": "Main near side of Pierce"
  },
  {
    "stop_id": "3890",
    "stop_name": "MAIN FS QUEEN",
    "stop_lat": "41.660847",
    "stop_lon": "-71.449877",
    "stop_desc": "Main far side of Queen"
  },
  {
    "stop_id": "3900",
    "stop_name": "HOPE NS 10 HOPE ST",
    "stop_lat": "41.660493",
    "stop_lon": "-71.26801",
    "stop_desc": "Hope near side of 10 Hope St"
  },
  {
    "stop_id": "3910",
    "stop_name": "HOPE OPP HIGH",
    "stop_lat": "41.661275",
    "stop_lon": "-71.270375",
    "stop_desc": "Hope opposite High"
  },
  {
    "stop_id": "3915",
    "stop_name": "HOPE NS HIGH",
    "stop_lat": "41.661259",
    "stop_lon": "-71.270113",
    "stop_desc": "Hope near side of High"
  },
  {
    "stop_id": "3920",
    "stop_name": "MAIN FS CHURCH",
    "stop_lat": "41.661607",
    "stop_lon": "-71.450069",
    "stop_desc": "Main far side of Church"
  },
  {
    "stop_id": "3930",
    "stop_name": "MAIN FS CHURCH",
    "stop_lat": "41.66175",
    "stop_lon": "-71.449917",
    "stop_desc": "Main far side of Church"
  },
  {
    "stop_id": "3975",
    "stop_name": "METACOM AT 205 METACOM",
    "stop_lat": "41.662644",
    "stop_lon": "-71.25708",
    "stop_desc": "205 Metacom"
  },
  {
    "stop_id": "3980",
    "stop_name": "METACOM OPP 205 METACOM",
    "stop_lat": "41.662479",
    "stop_lon": "-71.257001",
    "stop_desc": "Metacom opposite 205 Metacom"
  },
  {
    "stop_id": "4015",
    "stop_name": "MAIN FS POST",
    "stop_lat": "41.663729",
    "stop_lon": "-71.450203",
    "stop_desc": "Main far side of Post"
  },
  {
    "stop_id": "4020",
    "stop_name": "HOPE FS BURTON",
    "stop_lat": "41.664018",
    "stop_lon": "-71.273609",
    "stop_desc": "Hope far side of Burton"
  },
  {
    "stop_id": "4025",
    "stop_name": "MAIN NS DIVISION",
    "stop_lat": "41.663764",
    "stop_lon": "-71.45002",
    "stop_desc": "Main near side of Division"
  },
  {
    "stop_id": "4030",
    "stop_name": "HOPE OPP BURTON",
    "stop_lat": "41.663975",
    "stop_lon": "-71.273758",
    "stop_desc": "Hope opposite Burton"
  },
  {
    "stop_id": "4035",
    "stop_name": "POST FS LADD",
    "stop_lat": "41.66539",
    "stop_lon": "-71.450107",
    "stop_desc": "Post far side of Ladd"
  },
  {
    "stop_id": "4040",
    "stop_name": "HOPE NS UNION",
    "stop_lat": "41.665457",
    "stop_lon": "-71.274621",
    "stop_desc": "Hope near side of Union"
  },
  {
    "stop_id": "4045",
    "stop_name": "METACOM NS WOODLAWN",
    "stop_lat": "41.665677",
    "stop_lon": "-71.257471",
    "stop_desc": "Metacom near side of Woodlawn"
  },
  {
    "stop_id": "4050",
    "stop_name": "METACOM FS WOODLAWN",
    "stop_lat": "41.665922",
    "stop_lon": "-71.257361",
    "stop_desc": "Metacom far side of Woodlawn"
  },
  {
    "stop_id": "4055",
    "stop_name": "POST AT 4575 POST",
    "stop_lat": "41.666283",
    "stop_lon": "-71.450005",
    "stop_desc": "4575 Post"
  },
  {
    "stop_id": "4060",
    "stop_name": "HOPE NS CONSTITUTION",
    "stop_lat": "41.667033",
    "stop_lon": "-71.275187",
    "stop_desc": "Hope near side of Constitution"
  },
  {
    "stop_id": "4065",
    "stop_name": "HOPE FS UNION",
    "stop_lat": "41.66539",
    "stop_lon": "-71.274712",
    "stop_desc": "Hope far side of Union"
  },
  {
    "stop_id": "4070",
    "stop_name": "POST OPP COREY",
    "stop_lat": "41.667295",
    "stop_lon": "-71.449485",
    "stop_desc": "Post opposite Corey"
  },
  {
    "stop_id": "4085",
    "stop_name": "HOPE NS CHURCH",
    "stop_lat": "41.668694",
    "stop_lon": "-71.275826",
    "stop_desc": "Hope near side of Church"
  },
  {
    "stop_id": "4090",
    "stop_name": "HOPE NS CHURCH",
    "stop_lat": "41.668831",
    "stop_lon": "-71.27602",
    "stop_desc": "Hope near side of Church"
  },
  {
    "stop_id": "4095",
    "stop_name": "HOPE NS STATE",
    "stop_lat": "41.670306",
    "stop_lon": "-71.276445",
    "stop_desc": "Hope near side of State"
  },
  {
    "stop_id": "4100",
    "stop_name": "HOPE NS STATE",
    "stop_lat": "41.670508",
    "stop_lon": "-71.276669",
    "stop_desc": "Hope near side of State"
  },
  {
    "stop_id": "4105",
    "stop_name": "POST NS BAY VIEW",
    "stop_lat": "41.670154",
    "stop_lon": "-71.448286",
    "stop_desc": "Post near side of Bay View"
  },
  {
    "stop_id": "4115",
    "stop_name": "METACOM FS MT HOPE",
    "stop_lat": "41.670746",
    "stop_lon": "-71.258519",
    "stop_desc": "Metacom far side of Mt Hope"
  },
  {
    "stop_id": "4120",
    "stop_name": "METACOM OPP MT HOPE",
    "stop_lat": "41.670884",
    "stop_lon": "-71.258409",
    "stop_desc": "Metacom opposite Mt Hope"
  },
  {
    "stop_id": "4130",
    "stop_name": "HOPE AT 573 HOPE ST",
    "stop_lat": "41.672162",
    "stop_lon": "-71.277277",
    "stop_desc": "573 Hope St"
  },
  {
    "stop_id": "4135",
    "stop_name": "POST AT 4372 POST",
    "stop_lat": "41.672056",
    "stop_lon": "-71.447974",
    "stop_desc": "4372 Post"
  },
  {
    "stop_id": "4140",
    "stop_name": "WOODLAND AT 210 WOODLAND MANOR",
    "stop_lat": "41.672429",
    "stop_lon": "-71.591296",
    "stop_desc": "Woodland at 210 Woodland Manor"
  },
  {
    "stop_id": "4150",
    "stop_name": "METACOM FS WOBURN",
    "stop_lat": "41.672632",
    "stop_lon": "-71.258946",
    "stop_desc": "Metacom far side of Woburn"
  },
  {
    "stop_id": "4160",
    "stop_name": "METACOM NS TOWER",
    "stop_lat": "41.673363",
    "stop_lon": "-71.25896",
    "stop_desc": "Metacom near side of Tower"
  },
  {
    "stop_id": "4175",
    "stop_name": "HOPE NS FRANKLIN",
    "stop_lat": "41.673613",
    "stop_lon": "-71.277663",
    "stop_desc": "Hope near side of Franklin"
  },
  {
    "stop_id": "4180",
    "stop_name": "HOPE NS FRANKLIN",
    "stop_lat": "41.673858",
    "stop_lon": "-71.277862",
    "stop_desc": "Hope near side of Franklin"
  },
  {
    "stop_id": "4190",
    "stop_name": "WOODLAND MANOR",
    "stop_lat": "41.673582",
    "stop_lon": "-71.594275",
    "stop_desc": "Woodland Manor"
  },
  {
    "stop_id": "4195",
    "stop_name": "WOODTHRUSH OPP GOLDFINCH",
    "stop_lat": "41.67446",
    "stop_lon": "-71.591534",
    "stop_desc": "Woodthrush opposite Goldfinch"
  },