[
  {
    "stop_id": 5,
    "stop_code": "",
    "stop_name": "WESTERLY TOWN HALL",
    "stop_desc": "",
    "stop_lat": 41.377,
    "stop_lon": -71.829771,
    "zone_id": "",
    "stop_url": "",
    "location_type": 0,
    "parent_station": "",
    "stop_associated_place": ""
  },
  {
    "stop_id": 10,
    "stop_code": "",
    "stop_name": "GROVE NS WILCOX",
    "stop_desc": "",
    "stop_lat": 41.378328,
    "stop_lon": -71.82668,
    "zone_id": "",
    "stop_url": "",
    "location_type": 0,
    "parent_station": "",
    "stop_associated_place": ""
  },
  {
    "stop_id": 20,
    "stop_code": "",
    "stop_name": "WESTERLY RAILROAD STATION",
    "stop_desc": "",
    "stop_lat": 41.381108,
    "stop_lon": -71.829808,
    "zone_id": "",
    "stop_url": "",
    "location_type": 0,
    "parent_station": "",
    "stop_associated_place": "west"
  },
  {
    "stop_id": 25,
    "stop_code": "",
    "stop_name": "HIGH FS GROVE",
    "stop_desc": "",
    "stop_lat": 41.381039,
    "stop_lon": -71.82572,
    "zone_id": "",
    "stop_url": "",
    "location_type": 0,
    "parent_station": "",
    "stop_associated_place": ""
  },
  {
    "stop_id": 50,
    "stop_code": "",
    "stop_name": "BOON OPP PERKINS",
    "stop_desc": "",
    "stop_lat": 41.424357,
    "stop_lon": -71.46062,
    "zone_id": "",
    "stop_url": "",
    "location_type": 0,
    "parent_station": "",
    "stop_associated_place": ""
  },
  {
    "stop_id": 55,
    "stop_code": "",
    "stop_name": "BOON FS PERKINS",
    "stop_desc": "",
    "stop_lat": 41.424363,
    "stop_lon": -71.460504,
    "zone_id": "",
    "stop_url": "",
    "location_type": 0,
    "parent_station": "",
    "stop_associated_place": ""
  },
  {
    "stop_id": 60,
    "stop_code": "",
    "stop_name": "S PIER OPP SUMMER",
    "stop_desc": "",
    "stop_lat": 41.424339,
    "stop_lon": -71.461892,
    "zone_id": "",
    "stop_url": "",
    "location_type": 0,
    "parent_station": "",
    "stop_associated_place": ""
  },
  {
    "stop_id": 65,
    "stop_code": "",
    "stop_name": "S PIER FS SUMMER",
    "stop_desc": "",
    "stop_lat": 41.424603,
    "stop_lon": -71.462071,
    "zone_id": "",
    "stop_url": "",
    "location_type": 0,
    "parent_station": "",
    "stop_associated_place": ""
  },
  {
    "stop_id": 75,
    "stop_code": "",
    "stop_name": "S PIER NS FRANK LOW",
    "stop_desc": "",
    "stop_lat": 41.425304,
    "stop_lon": -71.464052,
    "zone_id": "",
    "stop_url": "",
    "location_type": 0,
    "parent_station": "",
    "stop_associated_place": ""
  },
  {
    "stop_id": 80,
    "stop_code": "",
    "stop_name": "S PIER NS FRANK LOW",
    "stop_desc": "",
    "stop_lat": 41.425305,
    "stop_lon": -71.463625,
    "zone_id": "",
    "stop_url": "",
    "location_type": 0,
    "parent_station": "",
    "stop_associated_place": ""
  },
  {
    "stop_id": 85,
    "stop_code": "",
    "stop_name": "BOON NS CONGDON",
    "stop_desc": "",
    "stop_lat": 41.42549,
    "stop_lon": -71.459991,
    "zone_id": "",
    "stop_url": "",
    "location_type": 0,
    "parent_station": "",
    "stop_associated_place": ""
  },
  {
    "stop_id": 90,
    "stop_code": "",
    "stop_name": "BOON NS CONGDON",
    "stop_desc": "",
    "stop_lat": 41.425519,
    "stop_lon": -71.460099,
    "zone_id": "",
    "stop_url": "",
    "location_type": 0,
    "parent_station": "",
    "stop_associated_place": ""
  },
  {
    "stop_id": 95,
    "stop_code": "",
    "stop_name": "S PIER OPP 172 S PIER",
    "stop_desc": "",
    "stop_lat": 41.426203,
    "stop_lon": -71.467536,
    "zone_id": "",
    "stop_url": "",
    "location_type": 0,
    "parent_station": "",
    "stop_associated_place": ""
  },
  {
    "stop_id": 110,
    "stop_code": "",
    "stop_name": "BOON AT 126 BOON",
    "stop_desc": "",
    "stop_lat": 41.427019,
    "stop_lon": -71.459391,
    "zone_id": "",
    "stop_url": "",
    "location_type": 0,
    "parent_station": "",
    "stop_associated_place": ""
  },
  {
    "stop_id": 115,
    "stop_code": "",
    "stop_name": "S PIER FS 172 S PIER",
    "stop_desc": "",
    "stop_lat": 41.426116,
    "stop_lon": -71.467565,
    "zone_id": "",
    "stop_url": "",
    "location_type": 0,
    "parent_station": "",
    "stop_associated_place": ""
  },
  {
    "stop_id": 120,
    "stop_code": "",
    "stop_name": "BOON FS RODMAN",
    "stop_desc": "",
    "stop_lat": 41.427139,
    "stop_lon": -71.45946,
    "zone_id": "",
    "stop_url": "",
    "location_type": 0,
    "parent_station": "",
    "stop_associated_place": ""
  },
  {
    "stop_id": 125,
    "stop_code": "",
    "stop_name": "S PIER AT NARRAGANSETT MIDDLE SCHOOL",
    "stop_desc": "",
    "stop_lat": 41.427791,
    "stop_lon": -71.472088,
    "zone_id": "",
    "stop_url": "",
    "location_type": 0,
    "parent_station": "",
    "stop_associated_place": ""
  },
  {
    "stop_id": 130,
    "stop_code": "",
    "stop_name": "SALT POND SHOPPING PLAZA (STOP&SHOP)",
    "stop_desc": "",
    "stop_lat": 41.428327,
    "stop_lon": -71.483315,
    "zone_id": "",
    "stop_url": "",
    "location_type": 0,
    "parent_station": "",
    "stop_associated_place": "narr"
  },
  {
    "stop_id": 135,
    "stop_code": "",
    "stop_name": "BOON NS CENTRAL",
    "stop_desc": "",
    "stop_lat": 41.428631,
    "stop_lon": -71.458762,
    "zone_id": "",
    "stop_url": "",
    "location_type": 0,
    "parent_station": "",
    "stop_associated_place": ""
  },
  {
    "stop_id": 140,
    "stop_code": "",
    "stop_name": "BOON NS CENTRAL",
    "stop_desc": "",
    "stop_lat": 41.429057,
    "stop_lon": -71.458806,
    "zone_id": "",
    "stop_url": "",
    "location_type": 0,
    "parent_station": "",
    "stop_associated_place": ""
  },
  {
    "stop_id": 150,
    "stop_code": "",
    "stop_name": "S PIER OPP NARRAGANSETT MIDDLE SCHOOL",
    "stop_desc": "",
    "stop_lat": 41.42755,
    "stop_lon": -71.471847,
    "zone_id": "",
    "stop_url": "",
    "location_type": 0,
    "parent_station": "",
    "stop_associated_place": ""
  },
  {
    "stop_id": 155,
    "stop_code": "",
    "stop_name": "S PIER NS LAKEWOOD",
    "stop_desc": "",
    "stop_lat": 41.42984,
    "stop_lon": -71.47616,
    "zone_id": "",
    "stop_url": "",
    "location_type": 0,
    "parent_station": "",
    "stop_associated_place": ""
  },
  {
    "stop_id": 170,
    "stop_code": "",
    "stop_name": "S PIER OPP AVICE",
    "stop_desc": "",
    "stop_lat": 41.430334,
    "stop_lon": -71.479041,
    "zone_id": "",
    "stop_url": "",
    "location_type": 0,
    "parent_station": "",
    "stop_associated_place": ""
  },
  {
    "stop_id": 185,
    "stop_code": "",
    "stop_name": "KINGSTOWN AT LIBRARY",
    "stop_desc": "",
    "stop_lat": 41.431188,
    "stop_lon": -71.460005,
    "zone_id": "",
    "stop_url": "",
    "location_type": 0,
    "parent_station": "",
    "stop_associated_place": ""
  },
  {
    "stop_id": 190,
    "stop_code": "",
    "stop_name": "KINGSTOWN FS CASWELL",
    "stop_desc": "",
    "stop_lat": 41.431088,
    "stop_lon": -71.460146,
    "zone_id": "",
    "stop_url": "",
    "location_type": 0,
    "parent_station": "",
    "stop_associated_place": ""
  },
  {
    "stop_id": 250,
    "stop_code": "",
    "stop_name": "BOSTON NECK AT TOWN BEACH SOUTH PAVILION",
    "stop_desc": "",
    "stop_lat": 41.435122,
    "stop_lon": -71.456388,
    "zone_id": "",
    "stop_url": "",
    "location_type": 0,
    "parent_station": "",
    "stop_associated_place": "nabe"
  },
  {
    "stop_id": 255,
    "stop_code": "",
    "stop_name": "BOSTON NECK - NORTH BEACH SOUTH PAVILION",
    "stop_desc": "",
    "stop_lat": 41.435296,
    "stop_lon": -71.456552,
    "zone_id": "",
    "stop_url": "",
    "location_type": 0,
    "parent_station": "",
    "stop_associated_place": "nabe"
  },
  {
    "stop_id": 290,
    "stop_code": "",
    "stop_name": "BOSTON NECK AT NARR TOWN BEACH NORTH LOT",
    "stop_desc": "",
    "stop_lat": 41.43684,
    "stop_lon": -71.454786,
    "zone_id": "",
    "stop_url": "",
    "location_type": 0,
    "parent_station": "",
    "stop_associated_place": ""
  },
  {
    "stop_id": 295,
    "stop_code": "",
    "stop_name": "BOSTON NECK - NORTH BEACH ENTRANCE",
    "stop_desc": "",
    "stop_lat": 41.437274,
    "stop_lon": -71.454592,
    "zone_id": "",
    "stop_url": "",
    "location_type": 0,
    "parent_station": "",
    "stop_associated_place": ""
  },
  {
    "stop_id": 300,
    "stop_code": "",
    "stop_name": "BOSTON NECK OPP WOOD",
    "stop_desc": "",
    "stop_lat": 41.440815,
    "stop_lon": -71.450822,
    "zone_id": "",
    "stop_url": "",
    "location_type": 0,
    "parent_station": "",
    "stop_associated_place": ""
  },
  {
    "stop_id": 305,
    "stop_code": "",
    "stop_name": "BOSTON NECK - NORTH BEACH CABANAS GATE 7",
    "stop_desc": "",
    "stop_lat": 41.438178,
    "stop_lon": -71.453131,
    "zone_id": "",
    "stop_url": "",
    "location_type": 0,
    "parent_station": "",
    "stop_associated_place": ""
  },
  {
    "stop_id": 310,
    "stop_code": "",
    "stop_name": "MAIN AT 399 MAIN",
    "stop_desc": "",
    "stop_lat": 41.437289,
    "stop_lon": -71.501033,
    "zone_id": "",
    "stop_url": "",
    "location_type": 0,
    "parent_station": "",
    "stop_associated_place": ""
  },
  {
    "stop_id": 315,
    "stop_code": "",
    "stop_name": "MAIN AT 396 MAIN",
    "stop_desc": "",
    "stop_lat": 41.437213,
    "stop_lon": -71.500964,
    "zone_id": "",
    "stop_url": "",
    "location_type": 0,
    "parent_station": "",
    "stop_associated_place": ""
  },
  {
    "stop_id": 335,
    "stop_code": "",
    "stop_name": "MAIN OPP 249-255 MAIN",
    "stop_desc": "",
    "stop_lat": 41.440298,
    "stop_lon": -71.49728,
    "zone_id": "",
    "stop_url": "",
    "location_type": 0,
    "parent_station": "",
    "stop_associated_place": ""
  },
  {
    "stop_id": 340,
    "stop_code": "",
    "stop_name": "MAIN OPP ROBINSON",
    "stop_desc": "",
    "stop_lat": 41.438867,
    "stop_lon": -71.498868,
    "zone_id": "",
    "stop_url": "",
    "location_type": 0,
    "parent_station": "",
    "stop_associated_place": ""
  },
  {
    "stop_id": 370,
    "stop_code": "",
    "stop_name": "MAIN OPP CLEVELAND",
    "stop_desc": "",
    "stop_lat": 41.440945,
    "stop_lon": -71.493886,
    "zone_id": "",
    "stop_url": "",
    "location_type": 0,
    "parent_station": "",
    "stop_associated_place": ""
  },
  {
    "stop_id": 375,
    "stop_code": "",
    "stop_name": "MAIN NS CHAPPELL",
    "stop_desc": "",
    "stop_lat": 41.441236,
    "stop_lon": -71.490843,
    "zone_id": "",
    "stop_url": "",
    "location_type": 0,
    "parent_station": "",
    "stop_associated_place": ""
  },
  {
    "stop_id": 380,
    "stop_code": "",
    "stop_name": "BOSTON NECK FS WOOD",
    "stop_desc": "",
    "stop_lat": 41.440427,
    "stop_lon": -71.451033,
    "zone_id": "",
    "stop_url": "",
    "location_type": 0,
    "parent_station": "",
    "stop_associated_place": ""
  },
  {
    "stop_id": 390,
    "stop_code": "",
    "stop_name": "MAIN FS COLUMBIA",
    "stop_desc": "",
    "stop_lat": 41.440837,
    "stop_lon": -71.49579,
    "zone_id": "",
    "stop_url": "",
    "location_type": 0,
    "parent_station": "",
    "stop_associated_place": ""
  },
  {
    "stop_id": 395,
    "stop_code": "",
    "stop_name": "MAIN FS CLEVELAND",
    "stop_desc": "",
    "stop_lat": 41.440996,
    "stop_lon": -71.494115,
    "zone_id": "",
    "stop_url": "",
    "location_type": 0,
    "parent_station": "",
    "stop_associated_place": ""
  },
  {
    "stop_id": 405,
    "stop_code": "",
    "stop_name": "MAIN NS HOLLEY",
    "stop_desc": "",
    "stop_lat": 41.441449,
    "stop_lon": -71.489655,
    "zone_id": "",
    "stop_url": "",
    "location_type": 0,
    "parent_station": "",
    "stop_associated_place": ""
  },
  {
    "stop_id": 415,
    "stop_code": "",
    "stop_name": "MAIN NS RT 108",
    "stop_desc": "",
    "stop_lat": 41.441356,
    "stop_lon": -71.489258,
    "zone_id": "",
    "stop_url": "",
    "location_type": 0,
    "parent_station": "",
    "stop_associated_place": ""
  },
  {
    "stop_id": 425,
    "stop_code": "",
    "stop_name": "OLD TOWER HILL NS RT 108",
    "stop_desc": "",
    "stop_lat": 41.441867,
    "stop_lon": -71.486656,
    "zone_id": "",
    "stop_url": "",
    "location_type": 0,
    "parent_station": "",
    "stop_associated_place": ""
  },
  {
    "stop_id": 430,
    "stop_code": "",
    "stop_name": "OLD TOWER HILL FS NARRAGANSETT",
    "stop_desc": "",
    "stop_lat": 41.441923,
    "stop_lon": -71.484458,
    "zone_id": "",
    "stop_url": "",
    "location_type": 0,
    "parent_station": "",
    "stop_associated_place": ""
  },
  {
    "stop_id": 435,
    "stop_code": "",
    "stop_name": "OLD TOWER HILL NS KELLEY",
    "stop_desc": "",
    "stop_lat": 41.442563,
    "stop_lon": -71.480573,
    "zone_id": "",
    "stop_url": "",
    "location_type": 0,
    "parent_station": "",
    "stop_associated_place": ""
  },
  {
    "stop_id": 440,
    "stop_code": "",
    "stop_name": "OLD TOWER HILL OPP CHAMBER OF COMMERCE",
    "stop_desc": "",
    "stop_lat": 41.44239,
    "stop_lon": -71.480569,
    "zone_id": "",
    "stop_url": "",
    "location_type": 0,
    "parent_station": "",
    "stop_associated_place": ""
  },
  {
    "stop_id": 445,
    "stop_code": "",
    "stop_name": "HIGH AT 180 HIGH",
    "stop_desc": "",
    "stop_lat": 41.441832,
    "stop_lon": -71.502313,
    "zone_id": "",
    "stop_url": "",
    "location_type": 0,
    "parent_station": "",
    "stop_associated_place": ""
  },
  {
    "stop_id": 450,
    "stop_code": "",
    "stop_name": "BOSTON NECK OPP STARR DRIVE W",
    "stop_desc": "",
    "stop_lat": 41.444056,
    "stop_lon": -71.450569,
    "zone_id": "",
    "stop_url": "",
    "location_type": 0,
    "parent_station": "",
    "stop_associated_place": ""
  },
  {
    "stop_id": 455,
    "stop_code": "",
    "stop_name": "WAKEFIELD MALL",
    "stop_desc": "",
    "stop_lat": 41.443701,
    "stop_lon": -71.483301,
    "zone_id": "",
    "stop_url": "",
    "location_type": 0,
    "parent_station": "",
    "stop_associated_place": "wake"
  },
  {
    "stop_id": 460,
    "stop_code": "",
    "stop_name": "BOSTON NECK FS CASTLE",
    "stop_desc": "",
    "stop_lat": 41.446304,
    "stop_lon": -71.451148,
    "zone_id": "",
    "stop_url": "",
    "location_type": 0,
    "parent_station": "",
    "stop_associated_place": ""
  },
  {
    "stop_id": 465,
    "stop_code": "",
    "stop_name": "BOSTON NECK NS STARR DRIVE W",
    "stop_desc": "",
    "stop_lat": 41.444039,
    "stop_lon": -71.450734,
    "zone_id": "",
    "stop_url": "",
    "location_type": 0,
    "parent_station": "",
    "stop_associated_place": ""
  },
  {
    "stop_id": 475,
    "stop_code": "",
    "stop_name": "HIGH FS TUCKER",
    "stop_desc": "",
    "stop_lat": 41.445317,
    "stop_lon": -71.502806,
    "zone_id": "",
    "stop_url": "",
    "location_type": 0,
    "parent_station": "",
    "stop_associated_place": ""
  },
  {
    "stop_id": 480,
    "stop_code": "",
    "stop_name": "BOSTON NECK NS CASTLE",
    "stop_desc": "",
    "stop_lat": 41.446273,
    "stop_lon": -71.451315,
    "zone_id": "",
    "stop_url": "",
    "location_type": 0,
    "parent_station": "",
    "stop_associated_place": ""
  },
  {
    "stop_id": 485,
    "stop_code": "",
    "stop_name": "HIGH FS OAKDELL",
    "stop_desc": "",
    "stop_lat": 41.446838,
    "stop_lon": -71.502613,
    "zone_id": "",
    "stop_url": "",
    "location_type": 0,
    "parent_station": "",
    "stop_associated_place": ""
  },
  {
    "stop_id": 495,
    "stop_code": "",
    "stop_name": "RT 1 OPP WAKEFIELD MEADOWS",
    "stop_desc": "",
    "stop_lat": 41.449051,
    "stop_lon": -71.472449,
    "zone_id": "",
    "stop_url": "",
    "location_type": 0,
    "parent_station": "",
    "stop_associated_place": ""
  },
  {
    "stop_id": 500,
    "stop_code": "",
    "stop_name": "BOSTON NECK FS STARR",
    "stop_desc": "",
    "stop_lat": 41.447528,
    "stop_lon": -71.451146,
    "zone_id": "",
    "stop_url": "",
    "location_type": 0,
    "parent_station": "",
    "stop_associated_place": ""
  },
  {
    "stop_id": 505,
    "stop_code": "",
    "stop_name": "HIGH NS CHURCH",
    "stop_desc": "",
    "stop_lat": 41.449314,
    "stop_lon": -71.501386,
    "zone_id": "",
    "stop_url": "",
    "location_type": 0,
    "parent_station": "",
    "stop_associated_place": ""
  },
  {
    "stop_id": 520,
    "stop_code": "",
    "stop_name": "RT 1 FS HAMPTON",
    "stop_desc": "",
    "stop_lat": 41.448753,
    "stop_lon": -71.47328,
    "zone_id": "",
    "stop_url": "",
    "location_type": 0,
    "parent_station": "",
    "stop_associated_place": ""
  },
  {
    "stop_id": 525,
    "stop_code": "",
    "stop_name": "BOSTON NECK OPP 483 BOSTON NECK",
    "stop_desc": "",
    "stop_lat": 41.455159,
    "stop_lon": -71.440324,
    "zone_id": "",
    "stop_url": "",
    "location_type": 0,
    "parent_station": "",
    "stop_associated_place": ""
  },
  {
    "stop_id": 535,
    "stop_code": "",
    "stop_name": "ASHAWAY PARK&RIDE (HOPKINTON)",
    "stop_desc": "",
    "stop_lat": 41.450174,
    "stop_lon": -71.78608,
    "zone_id": "",
    "stop_url": "",
    "location_type": 0,
    "parent_station": "",
    "stop_associated_place": "asha"
  },
  {
    "stop_id": 540,
    "stop_code": "",
    "stop_name": "HIGH FS RT 108",
    "stop_desc": "",
    "stop_lat": 41.450553,
    "stop_lon": -71.500738,
    "zone_id": "",
    "stop_url": "",
    "location_type": 0,
    "parent_station": "",
    "stop_associated_place": "petr"
  },
  {
    "stop_id": 545,
    "stop_code": "",
    "stop_name": "HIGH NS RT 108",
    "stop_desc": "",
    "stop_lat": 41.4506,
    "stop_lon": -71.500577,
    "zone_id": "",
    "stop_url": "",
    "location_type": 0,
    "parent_station": "",
    "stop_associated_place": ""
  },
  {
    "stop_id": 550,
    "stop_code": "",
    "stop_name": "KINGSTOWN before SWEET FERN",
    "stop_desc": "",
    "stop_lat": 41.452512,
    "stop_lon": -71.501975,
    "zone_id": "",
    "stop_url": "",
    "location_type": 0,
    "parent_station": "",
    "stop_associated_place": ""
  },
  {
    "stop_id": 560,
    "stop_code": "",
    "stop_name": "BOSTON NECK FS OLD BOSTON NECK",
    "stop_desc": "",
    "stop_lat": 41.453323,
    "stop_lon": -71.442541,
    "zone_id": "",
    "stop_url": "",
    "location_type": 0,
    "parent_station": "",
    "stop_associated_place": ""
  },
  {
    "stop_id": 565,
    "stop_code": "",
    "stop_name": "BOSTON NECK NS OLD BOSTON NECK",
    "stop_desc": "",
    "stop_lat": 41.458531,
    "stop_lon": -71.43584,
    "zone_id": "",
    "stop_url": "",
    "location_type": 0,
    "parent_station": "",
    "stop_associated_place": ""
  },
  {
    "stop_id": 570,
    "stop_code": "",
    "stop_name": "KINGSTOWN OPP 1428 KINGSTOWN",
    "stop_desc": "",
    "stop_lat": 41.454184,
    "stop_lon": -71.505059,
    "zone_id": "",
    "stop_url": "",
    "location_type": 0,
    "parent_station": "",
    "stop_associated_place": ""
  },
  {
    "stop_id": 585,
    "stop_code": "",
    "stop_name": "KINGSTOWN NS MEADOWBROOK",
    "stop_desc": "",
    "stop_lat": 41.45675,
    "stop_lon": -71.508331,
    "zone_id": "",
    "stop_url": "",
    "location_type": 0,
    "parent_station": "",
    "stop_associated_place": ""
  },
  {
    "stop_id": 595,
    "stop_code": "",
    "stop_name": "KINGSTOWN NS SAMUEL RODMAN",
    "stop_desc": "",
    "stop_lat": 41.459516,
    "stop_lon": -71.508756,
    "zone_id": "",
    "stop_url": "",
    "location_type": 0,
    "parent_station": "",
    "stop_associated_place": ""
  },
  {
    "stop_id": 605,
    "stop_code": "",
    "stop_name": "BELLEVUE OPP MARBLE HOUSE",
    "stop_desc": "",
    "stop_lat": 41.46253,
    "stop_lon": -71.306669,
    "zone_id": "",
    "stop_url": "",
    "location_type": 0,
    "parent_station": "",
    "stop_associated_place": "maho"
  },
  {
    "stop_id": 615,
    "stop_code": "",
    "stop_name": "KINGSTOWN NS SAUGATUCKET",
    "stop_desc": "",
    "stop_lat": 41.462169,
    "stop_lon": -71.509323,
    "zone_id": "",
    "stop_url": "",
    "location_type": 0,
    "parent_station": "",
    "stop_associated_place": ""
  },
  {
    "stop_id": 630,
    "stop_code": "",
    "stop_name": "BOSTON NECK AT 483 BOSTON NECK",
    "stop_desc": "",
    "stop_lat": 41.454983,
    "stop_lon": -71.440326,
    "zone_id": "",
    "stop_url": "",
    "location_type": 0,
    "parent_station": "",
    "stop_associated_place": ""
  },
  {
    "stop_id": 635,
    "stop_code": "",
    "stop_name": "BOSTON NECK OPP ANAWAN CLIFF",
    "stop_desc": "",
    "stop_lat": 41.461219,
    "stop_lon": -71.433642,
    "zone_id": "",
    "stop_url": "",
    "location_type": 0,
    "parent_station": "",
    "stop_associated_place": ""
  },
  {
    "stop_id": 640,
    "stop_code": "",
    "stop_name": "BOSTON NECK OPP HILLVIEW",
    "stop_desc": "",
    "stop_lat": 41.464375,
    "stop_lon": -71.432912,
    "zone_id": "",
    "stop_url": "",
    "location_type": 0,
    "parent_station": "",
    "stop_associated_place": ""
  },
  {
    "stop_id": 645,
    "stop_code": "",
    "stop_name": "BOSTON NECK AT 750 BOSTON NECK",
    "stop_desc": "",
    "stop_lat": 41.46719,
    "stop_lon": -71.433588,
    "zone_id": "",
    "stop_url": "",
    "location_type": 0,
    "parent_station": "",
    "stop_associated_place": ""
  },
  {
    "stop_id": 650,
    "stop_code": "",
    "stop_name": "BELLEVUE OPP 541 BELLEVUE",
    "stop_desc": "",
    "stop_lat": 41.465772,
    "stop_lon": -71.306883,
    "zone_id": "",
    "stop_url": "",
    "location_type": 0,
    "parent_station": "",
    "stop_associated_place": ""
  },
  {
    "stop_id": 655,
    "stop_code": "",
    "stop_name": "BELLEVUE OPP ROSECLIFF",
    "stop_desc": "",
    "stop_lat": 41.465496,
    "stop_lon": -71.306933,
    "zone_id": "",
    "stop_url": "",
    "location_type": 0,
    "parent_station": "",
    "stop_associated_place": ""
  },
  {
    "stop_id": 665,
    "stop_code": "",
    "stop_name": "BOSTON NECK NS WEST BAY",
    "stop_desc": "",
    "stop_lat": 41.469251,
    "stop_lon": -71.433902,
    "zone_id": "",
    "stop_url": "",
    "location_type": 0,
    "parent_station": "",
    "stop_associated_place": ""
  },
  {
    "stop_id": 670,
    "stop_code": "",
    "stop_name": "KINGSTOWN NS GREENWOOD",
    "stop_desc": "",
    "stop_lat": 41.467617,
    "stop_lon": -71.512248,
    "zone_id": "",
    "stop_url": "",
    "location_type": 0,
    "parent_station": "",
    "stop_associated_place": ""
  },
  {
    "stop_id": 685,
    "stop_code": "",
    "stop_name": "KINGSTOWN OPP GREENWOOD",
    "stop_desc": "",
    "stop_lat": 41.467638,
    "stop_lon": -71.512128,
    "zone_id": "",
    "stop_url": "",
    "location_type": 0,
    "parent_station": "",
    "stop_associated_place": ""
  },
  {
    "stop_id": 730,
    "stop_code": "",
    "stop_name": "RUGGLES OPP STONEACRE",
    "stop_desc": "",
    "stop_lat": 41.468123,
    "stop_lon": -71.305747,
    "zone_id": "",
    "stop_url": "",
    "location_type": 0,
    "parent_station": "",
    "stop_associated_place": "beru"
  },
  {
    "stop_id": 735,
    "stop_code": "",
    "stop_name": "RUGGLES OPP 204 RUGGLES",
    "stop_desc": "",
    "stop_lat": 41.468284,
    "stop_lon": -71.304332,
    "zone_id": "",
    "stop_url": "",
    "location_type": 0,
    "parent_station": "",
    "stop_associated_place": ""
  },
  {
    "stop_id": 740,
    "stop_code": "",
    "stop_name": "RUGGLES AT STONEACRE HOUSE",
    "stop_desc": "",
    "stop_lat": 41.468207,
    "stop_lon": -71.30565,
    "zone_id": "",
    "stop_url": "",
    "location_type": 0,
    "parent_station": "",
    "stop_associated_place": "beru"
  },
  {
    "stop_id": 745,
    "stop_code": "",
    "stop_name": "RUGGLES AT WETMORE",
    "stop_desc": "",
    "stop_lat": 41.46838,
    "stop_lon": -71.302933,
    "zone_id": "",
    "stop_url": "",
    "location_type": 0,
    "parent_station": "",
    "stop_associated_place": ""
  },
  {
    "stop_id": 750,
    "stop_code": "",
    "stop_name": "RUGGLES OPP CAREY MANSION",
    "stop_desc": "",
    "stop_lat": 41.468328,
    "stop_lon": -71.304343,
    "zone_id": "",
    "stop_url": "",
    "location_type": 0,
    "parent_station": "",
    "stop_associated_place": ""
  },
  {
    "stop_id": 755,
    "stop_code": "",
    "stop_name": "RUGGLES OPP WETMORE",
    "stop_desc": "",
    "stop_lat": 41.46851,
    "stop_lon": -71.302897,
    "zone_id": "",
    "stop_url": "",
    "location_type": 0,
    "parent_station": "",
    "stop_associated_place": ""
  },
  {
    "stop_id": 760,
    "stop_code": "",
    "stop_name": "RUGGLES NS OCHRE POINT",
    "stop_desc": "",
    "stop_lat": 41.468629,
    "stop_lon": -71.299664,
    "zone_id": "",
    "stop_url": "",
    "location_type": 0,
    "parent_station": "",
    "stop_associated_place": ""
  },
  {
    "stop_id": 775,
    "stop_code": "",
    "stop_name": "OCHRE POINT NS RUGGLES",
    "stop_desc": "",
    "stop_lat": 41.468826,
    "stop_lon": -71.299495,
    "zone_id": "",
    "stop_url": "",
    "location_type": 0,
    "parent_station": "",
    "stop_associated_place": ""
  },
  {
    "stop_id": 780,
    "stop_code": "",
    "stop_name": "BOSTON NECK FS MARIAN",
    "stop_desc": "",
    "stop_lat": 41.473037,
    "stop_lon": -71.434068,
    "zone_id": "",
    "stop_url": "",
    "location_type": 0,
    "parent_station": "",
    "stop_associated_place": ""
  },
  {
    "stop_id": 785,
    "stop_code": "",
    "stop_name": "BOSTON NECK NS BROWNING",
    "stop_desc": "",
    "stop_lat": 41.467493,
    "stop_lon": -71.433526,
    "zone_id": "",
    "stop_url": "",
    "location_type": 0,
    "parent_station": "",
    "stop_associated_place": ""
  },
  {
    "stop_id": 790,
    "stop_code": "",
    "stop_name": "OCHRE POINT NS VICTORIA",
    "stop_desc": "",
    "stop_lat": 41.469948,
    "stop_lon": -71.299707,
    "zone_id": "",
    "stop_url": "",
    "location_type": 0,
    "parent_station": "",
    "stop_associated_place": ""
  },
  {
    "stop_id": 805,
    "stop_code": "",
    "stop_name": "KINGSTOWN NS ROLENS",
    "stop_desc": "",
    "stop_lat": 41.469874,
    "stop_lon": -71.513576,
    "zone_id": "",
    "stop_url": "",
    "location_type": 0,
    "parent_station": "",
    "stop_associated_place": ""
  },
  {
    "stop_id": 815,
    "stop_code": "",
    "stop_name": "KINGSTOWN OPP ROLENS",
    "stop_desc": "",
    "stop_lat": 41.46997,
    "stop_lon": -71.513763,
    "zone_id": "",
    "stop_url": "",
    "location_type": 0,
    "parent_station": "",
    "stop_associated_place": ""
  },
  {
    "stop_id": 820,
    "stop_code": "",
    "stop_name": "OCHRE POINT NS OHARE CENTER",
    "stop_desc": "",
    "stop_lat": 41.470592,
    "stop_lon": -71.29975,
    "zone_id": "",
    "stop_url": "",
    "location_type": 0,
    "parent_station": "",
    "stop_associated_place": "salv"
  },
  {
    "stop_id": 830,
    "stop_code": "",
    "stop_name": "OCHRE POINT OPP OHARE CENTER",
    "stop_desc": "",
    "stop_lat": 41.470963,
    "stop_lon": -71.299939,
    "zone_id": "",
    "stop_url": "",
    "location_type": 0,
    "parent_station": "",
    "stop_associated_place": "salv"
  },
  {
    "stop_id": 845,
    "stop_code": "",
    "stop_name": "OCHRE PONT OPP MCAULEY HALL",
    "stop_desc": "",
    "stop_lat": 41.472293,
    "stop_lon": -71.300172,
    "zone_id": "",
    "stop_url": "",
    "location_type": 0,
    "parent_station": "",
    "stop_associated_place": ""
  },
  {
    "stop_id": 850,
    "stop_code": "",
    "stop_name": "OCHRE PONT AT MCAULEY HALL",
    "stop_desc": "",
    "stop_lat": 41.472224,
    "stop_lon": -71.300024,
    "zone_id": "",
    "stop_url": "",
    "location_type": 0,
    "parent_station": "",
    "stop_associated_place": ""
  },
  {
    "stop_id": 875,
    "stop_code": "",
    "stop_name": "OCHRE POINT AT LEROY",
    "stop_desc": "",
    "stop_lat": 41.473047,
    "stop_lon": -71.300161,
    "zone_id": "",
    "stop_url": "",
    "location_type": 0,
    "parent_station": "",
    "stop_associated_place": ""
  },
  {
    "stop_id": 880,
    "stop_code": "",
    "stop_name": "OCHRE POINT NS LEROY",
    "stop_desc": "",
    "stop_lat": 41.473187,
    "stop_lon": -71.300316,
    "zone_id": "",
    "stop_url": "",
    "location_type": 0,
    "parent_station": "",
    "stop_associated_place": ""
  },
  {
    "stop_id": 885,
    "stop_code": "",
    "stop_name": "BOSTON NECK OPP MARIAN",
    "stop_desc": "",
    "stop_lat": 41.4731,
    "stop_lon": -71.433888,
    "zone_id": "",
    "stop_url": "",
    "location_type": 0,
    "parent_station": "",
    "stop_associated_place": ""
  },
  {
    "stop_id": 890,
    "stop_code": "",
    "stop_name": "BOSTON NECK AT 904 BOSTON NECK",
    "stop_desc": "",
    "stop_lat": 41.475633,
    "stop_lon": -71.435242,
    "zone_id": "",
    "stop_url": "",
    "location_type": 0,
    "parent_station": "",
    "stop_associated_place": ""
  },
  {
    "stop_id": 905,
    "stop_code": "",
    "stop_name": "KINGSTOWN NS WESTWIND",
    "stop_desc": "",
    "stop_lat": 41.47106,
    "stop_lon": -71.51468,
    "zone_id": "",
    "stop_url": "",
    "location_type": 0,
    "parent_station": "",
    "stop_associated_place": ""
  },
  {
    "stop_id": 910,
    "stop_code": "",
    "stop_name": "OCHRE POINT NS WEBSTER",
    "stop_desc": "",
    "stop_lat": 41.474145,
    "stop_lon": -71.300124,
    "zone_id": "",
    "stop_url": "",
    "location_type": 0,
    "parent_station": "",
    "stop_associated_place": ""
  },
  {
    "stop_id": 915,
    "stop_code": "",
    "stop_name": "OCHRE POINT NS WEBSTER",
    "stop_desc": "",
    "stop_lat": 41.474556,
    "stop_lon": -71.300226,
    "zone_id": "",
    "stop_url": "",
    "location_type": 0,
    "parent_station": "",
    "stop_associated_place": ""
  },
  {
    "stop_id": 925,
    "stop_code": "",
    "stop_name": "KINGSTOWN OPP WAYSIDE",
    "stop_desc": "",
    "stop_lat": 41.474617,
    "stop_lon": -71.517515,
    "zone_id": "",
    "stop_url": "",
    "location_type": 0,
    "parent_station": "",
    "stop_associated_place": ""
  },
  {
    "stop_id": 935,
    "stop_code": "",
    "stop_name": "KINGSTOWN OPP E FARM",
    "stop_desc": "",
    "stop_lat": 41.472152,
    "stop_lon": -71.51562,
    "zone_id": "",
    "stop_url": "",
    "location_type": 0,
    "parent_station": "",
    "stop_associated_place": ""
  },
  {
    "stop_id": 940,
    "stop_code": "",
    "stop_name": "BELLEVUE NS NARRAGANSETT",
    "stop_desc": "",
    "stop_lat": 41.475496,
    "stop_lon": -71.307904,
    "zone_id": "",
    "stop_url": "",
    "location_type": 0,
    "parent_station": "",
    "stop_associated_place": ""
  },
  {
    "stop_id": 950,
    "stop_code": "",
    "stop_name": "NARRAGANSETT NS BELLEVUE",
    "stop_desc": "",
    "stop_lat": 41.475349,
    "stop_lon": -71.307231,
    "zone_id": "",
    "stop_url": "",
    "location_type": 0,
    "parent_station": "",
    "stop_associated_place": ""
  },
  {
    "stop_id": 965,
    "stop_code": "",
    "stop_name": "NARRAGANSETT OPP NEWPORT HALL",
    "stop_desc": "",
    "stop_lat": 41.475517,
    "stop_lon": -71.302747,
    "zone_id": "",
    "stop_url": "",
    "location_type": 0,
    "parent_station": "",
    "stop_associated_place": ""
  },
  {
    "stop_id": 975,
    "stop_code": "",
    "stop_name": "BOSTON NECK NS EMERY",
    "stop_desc": "",
    "stop_lat": 41.478025,
    "stop_lon": -71.435953,
    "zone_id": "",
    "stop_url": "",
    "location_type": 0,
    "parent_station": "",
    "stop_associated_place": ""
  },
  {
    "stop_id": 980,
    "stop_code": "",
    "stop_name": "BOSTON NECK AT 909 BOSTON NECK",
    "stop_desc": "",
    "stop_lat": 41.475667,
    "stop_lon": -71.435073,
    "zone_id": "",
    "stop_url": "",
    "location_type": 0,
    "parent_station": "",
    "stop_associated_place": ""
  },
  {
    "stop_id": 1010,
    "stop_code": "",
    "stop_name": "BELLEVUE FS DIXON",
    "stop_desc": "",
    "stop_lat": 41.477154,
    "stop_lon": -71.308055,
    "zone_id": "",
    "stop_url": "",
    "location_type": 0,
    "parent_station": "",
    "stop_associated_place": ""
  },
  {
    "stop_id": 1030,
    "stop_code": "",
    "stop_name": "KINGSTOWN AT 2327 KINGSTOWN",
    "stop_desc": "",
    "stop_lat": 41.476133,
    "stop_lon": -71.518739,
    "zone_id": "",
    "stop_url": "",
    "location_type": 0,
    "parent_station": "",
    "stop_associated_place": ""
  },
  {
    "stop_id": 1035,
    "stop_code": "",
    "stop_name": "KINGSTOWN FS WAYSIDE",
    "stop_desc": "",
    "stop_lat": 41.474451,
    "stop_lon": -71.517491,
    "zone_id": "",
    "stop_url": "",
    "location_type": 0,
    "parent_station": "",
    "stop_associated_place": ""
  },
  {
    "stop_id": 1040,
    "stop_code": "",
    "stop_name": "BELLEVUE NS PERRY",
    "stop_desc": "",
    "stop_lat": 41.479251,
    "stop_lon": -71.308596,
    "zone_id": "",
    "stop_url": "",
    "location_type": 0,
    "parent_station": "",
    "stop_associated_place": ""
  },
  {
    "stop_id": 1055,
    "stop_code": "",
    "stop_name": "BOSTON NECK OPP CONANICUS",
    "stop_desc": "",
    "stop_lat": 41.479319,
    "stop_lon": -71.436179,
    "zone_id": "",
    "stop_url": "",
    "location_type": 0,
    "parent_station": "",
    "stop_associated_place": ""
  },
  {
    "stop_id": 1060,
    "stop_code": "",
    "stop_name": "BOSTON NECK NS CONANICUS",
    "stop_desc": "",
    "stop_lat": 41.479533,
    "stop_lon": -71.436402,
    "zone_id": "",
    "stop_url": "",
    "location_type": 0,
    "parent_station": "",
    "stop_associated_place": ""
  },
  {
    "stop_id": 1070,
    "stop_code": "",
    "stop_name": "KINGSTOWN AT 2318 KINGSTOWN",
    "stop_desc": "",
    "stop_lat": 41.475945,
    "stop_lon": -71.518724,
    "zone_id": "",
    "stop_url": "",
    "location_type": 0,
    "parent_station": "",
    "stop_associated_place": ""
  },
  {
    "stop_id": 1075,
    "stop_code": "",
    "stop_name": "KINGSTOWN FS NORTH",
    "stop_desc": "",
    "stop_lat": 41.480003,
    "stop_lon": -71.522949,
    "zone_id": "",
    "stop_url": "",
    "location_type": 0,
    "parent_station": "",
    "stop_associated_place": ""
  },
  {
    "stop_id": 1080,
    "stop_code": "",
    "stop_name": "KINGSTOWN FS RT 138",
    "stop_desc": "",
    "stop_lat": 41.479607,
    "stop_lon": -71.520794,
    "zone_id": "",
    "stop_url": "",
    "location_type": 0,
    "parent_station": "",
    "stop_associated_place": ""
  },
  {
    "stop_id": 1085,
    "stop_code": "",
    "stop_name": "KINGSTOWN AT 2579 KINGSTOWN",
    "stop_desc": "",
    "stop_lat": 41.480197,
    "stop_lon": -71.524366,
    "zone_id": "",
    "stop_url": "",
    "location_type": 0,
    "parent_station": "",
    "stop_associated_place": ""
  },
  {
    "stop_id": 1095,
    "stop_code": "",
    "stop_name": "BELLEVUE FS BOWERY",
    "stop_desc": "",
    "stop_lat": 41.480894,
    "stop_lon": -71.308547,
    "zone_id": "",
    "stop_url": "",
    "location_type": 0,
    "parent_station": "",
    "stop_associated_place": ""
  },
  {
    "stop_id": 1100,
    "stop_code": "",
    "stop_name": "BELLEVUE FS E BOWERY",
    "stop_desc": "",
    "stop_lat": 41.481051,
    "stop_lon": -71.308429,
    "zone_id": "",
    "stop_url": "",
    "location_type": 0,
    "parent_station": "",
    "stop_associated_place": ""
  },
  {
    "stop_id": 1120,
    "stop_code": "",
    "stop_name": "UPPER COLLEGE NS RT 138",
    "stop_desc": "",
    "stop_lat": 41.481191,
    "stop_lon": -71.525551,
    "zone_id": "",
    "stop_url": "",
    "location_type": 0,
    "parent_station": "",
    "stop_associated_place": ""
  },
  {
    "stop_id": 1125,
    "stop_code": "",
    "stop_name": "KINGSTOWN AT GRADUATE VILLAGE APARTMENTS",
    "stop_desc": "",
    "stop_lat": 41.482005,
    "stop_lon": -71.535882,
    "zone_id": "",
    "stop_url": "",
    "location_type": 0,
    "parent_station": "",
    "stop_associated_place": ""
  },
  {
    "stop_id": 1140,
    "stop_code": "",
    "stop_name": "LOWER COLLEGE NS BAYBERRY",
    "stop_desc": "",
    "stop_lat": 41.482183,
    "stop_lon": -71.529691,
    "zone_id": "",
    "stop_url": "",
    "location_type": 0,
    "parent_station": "",
    "stop_associated_place": ""
  },
  {
    "stop_id": 1145,
    "stop_code": "",
    "stop_name": "BELLEVUE OPP TENNIS HALL OF FAME",
    "stop_desc": "",
    "stop_lat": 41.482559,
    "stop_lon": -71.308563,
    "zone_id": "",
    "stop_url": "",
    "location_type": 0,
    "parent_station": "",
    "stop_associated_place": "beme"
  },
  {
    "stop_id": 1150,
    "stop_code": "",
    "stop_name": "BELLEVUE AT TENNIS HALL OF FAME",
    "stop_desc": "",
    "stop_lat": 41.48295,
    "stop_lon": -71.308448,
    "zone_id": "",
    "stop_url": "",
    "location_type": 0,
    "parent_station": "",
    "stop_associated_place": "beme"
  },
  {
    "stop_id": 1155,
    "stop_code": "",
    "stop_name": "LOWER COLLEGE OPP ST AUGUSTINES CHURCH",
    "stop_desc": "",
    "stop_lat": 41.481905,
    "stop_lon": -71.529871,
    "zone_id": "",
    "stop_url": "",
    "location_type": 0,
    "parent_station": "",
    "stop_associated_place": ""
  },
  {
    "stop_id": 1165,
    "stop_code": "",
    "stop_name": "BOSTON NECK NS MOUNTVIEW",
    "stop_desc": "",
    "stop_lat": 41.483023,
    "stop_lon": -71.436962,
    "zone_id": "",
    "stop_url": "",
    "location_type": 0,
    "parent_station": "",
    "stop_associated_place": ""
  },
  {
    "stop_id": 1175,
    "stop_code": "",
    "stop_name": "KINGSTOWN FS W INDEPENDENCE",
    "stop_desc": "",
    "stop_lat": 41.482872,
    "stop_lon": -71.540778,
    "zone_id": "",
    "stop_url": "",
    "location_type": 0,
    "parent_station": "",
    "stop_associated_place": ""
  },
  {
    "stop_id": 1180,
    "stop_code": "",
    "stop_name": "UPPER COLLEGE NS CAMPUS",
    "stop_desc": "",
    "stop_lat": 41.482732,
    "stop_lon": -71.525703,
    "zone_id": "",
    "stop_url": "",
    "location_type": 0,
    "parent_station": "",
    "stop_associated_place": ""
  },
  {
    "stop_id": 1185,
    "stop_code": "",
    "stop_name": "UPPER COLLEGE FS CAMPUS",
    "stop_desc": "",
    "stop_lat": 41.482725,
    "stop_lon": -71.525816,
    "zone_id": "",
    "stop_url": "",
    "location_type": 0,
    "parent_station": "",
    "stop_associated_place": ""
  },
  {
    "stop_id": 1190,
    "stop_code": "",
    "stop_name": "CAMPUS AT COLLEGE OF PHARMACY",
    "stop_desc": "",
    "stop_lat": 41.483487,
    "stop_lon": -71.528164,
    "zone_id": "",
    "stop_url": "",
    "location_type": 0,
    "parent_station": "",
    "stop_associated_place": ""
  },
  {
    "stop_id": 1205,
    "stop_code": "",
    "stop_name": "KINGSTOWN NS WAITES CORNER",
    "stop_desc": "",
    "stop_lat": 41.482979,
    "stop_lon": -71.551555,
    "zone_id": "",
    "stop_url": "",
    "location_type": 0,
    "parent_station": "",
    "stop_associated_place": ""
  },
  {
    "stop_id": 1210,
    "stop_code": "",
    "stop_name": "BELLEVUE FS DOWNING",
    "stop_desc": "",
    "stop_lat": 41.485734,
    "stop_lon": -71.308748,
    "zone_id": "",
    "stop_url": "",
    "location_type": 0,
    "parent_station": "",
    "stop_associated_place": ""
  },
  {
    "stop_id": 1215,
    "stop_code": "",
    "stop_name": "BELLEVUE FS PELHAM",
    "stop_desc": "",
    "stop_lat": 41.485142,
    "stop_lon": -71.308774,
    "zone_id": "",
    "stop_url": "",
    "location_type": 0,
    "parent_station": "",
    "stop_associated_place": ""
  },
  {
    "stop_id": 1225,
    "stop_code": "",
    "stop_name": "URI MEMORIAL UNION",
    "stop_desc": "",
    "stop_lat": 41.484315,
    "stop_lon": -71.529311,
    "zone_id": "",
    "stop_url": "",
    "location_type": 0,
    "parent_station": "",
    "stop_associated_place": "uri"
  },
  {
    "stop_id": 1230,
    "stop_code": "",
    "stop_name": "KINGSTON RAILROAD STATION",
    "stop_desc": "",
    "stop_lat": 41.484102,
    "stop_lon": -71.560243,
    "zone_id": "",
    "stop_url": "",
    "location_type": 0,
    "parent_station": "",
    "stop_associated_place": "kirr"
  },
  {
    "stop_id": 1245,
    "stop_code": "",
    "stop_name": "BOSTON NECK OPP GARDENIA",
    "stop_desc": "",
    "stop_lat": 41.485199,
    "stop_lon": -71.437187,
    "zone_id": "",
    "stop_url": "",
    "location_type": 0,
    "parent_station": "",
    "stop_associated_place": ""
  },
  {
    "stop_id": 1250,
    "stop_code": "",
    "stop_name": "BOSTON NECK FS GARDENIA",
    "stop_desc": "",
    "stop_lat": 41.485433,
    "stop_lon": -71.437117,
    "zone_id": "",
    "stop_url": "",
    "location_type": 0,
    "parent_station": "",
    "stop_associated_place": ""
  },
  {
    "stop_id": 1275,
    "stop_code": "",
    "stop_name": "BELLEVUE NS OLD BEACH",
    "stop_desc": "",
    "stop_lat": 41.485734,
    "stop_lon": -71.308748,
    "zone_id": "",
    "stop_url": "",
    "location_type": 0,
    "parent_station": "",
    "stop_associated_place": ""
  },
  {
    "stop_id": 1295,
    "stop_code": "",
    "stop_name": "BOSTON NECK OPP 1141 BOSTON NECK",
    "stop_desc": "",
    "stop_lat": 41.488035,
    "stop_lon": -71.437646,
    "zone_id": "",
    "stop_url": "",
    "location_type": 0,
    "parent_station": "",
    "stop_associated_place": ""
  },
  {
    "stop_id": 1300,
    "stop_code": "",
    "stop_name": "BELLEVUE NS CHURCH",
    "stop_desc": "",
    "stop_lat": 41.487185,
    "stop_lon": -71.309318,
    "zone_id": "",
    "stop_url": "",
    "location_type": 0,
    "parent_station": "",
    "stop_associated_place": ""
  },
  {
    "stop_id": 1305,
    "stop_code": "",
    "stop_name": "BELLEVUE NS ZION",
    "stop_desc": "",
    "stop_lat": 41.487639,
    "stop_lon": -71.309422,
    "zone_id": "",
    "stop_url": "",
    "location_type": 0,
    "parent_station": "",
    "stop_associated_place": ""
  },
  {
    "stop_id": 1315,
    "stop_code": "",
    "stop_name": "TOURO NS HIGH",
    "stop_desc": "",
    "stop_lat": 41.488671,
    "stop_lon": -71.311134,
    "zone_id": "",
    "stop_url": "",
    "location_type": 0,
    "parent_station": "",
    "stop_associated_place": ""
  },
  {
    "stop_id": 1330,
    "stop_code": "",
    "stop_name": "TOURO NS TOURO COURT",
    "stop_desc": "",
    "stop_lat": 41.489805,
    "stop_lon": -71.314371,
    "zone_id": "",
    "stop_url": "",
    "location_type": 0,
    "parent_station": "",
    "stop_associated_place": ""
  },
  {
    "stop_id": 1340,
    "stop_code": "",
    "stop_name": "MARLBOROUGH NS THAMES",
    "stop_desc": "",
    "stop_lat": 41.490822,
    "stop_lon": -71.315476,
    "zone_id": "",
    "stop_url": "",
    "location_type": 0,
    "parent_station": "",
    "stop_associated_place": ""
  },
  {
    "stop_id": 1345,
    "stop_code": "",
    "stop_name": "MARLBOROUGH OPP DUKE",
    "stop_desc": "",
    "stop_lat": 41.490951,
    "stop_lon": -71.315198,
    "zone_id": "",
    "stop_url": "",
    "location_type": 0,
    "parent_station": "",
    "stop_associated_place": ""
  },
  {
    "stop_id": 1365,
    "stop_code": "",
    "stop_name": "MARLBOROUGH NS FAREWELL",
    "stop_desc": "",
    "stop_lat": 41.491325,
    "stop_lon": -71.313491,
    "zone_id": "",
    "stop_url": "",
    "location_type": 0,
    "parent_station": "",
    "stop_associated_place": ""
  },
  {
    "stop_id": 1370,
    "stop_code": "",
    "stop_name": "MARLBOROUGH FS BROADWAY",
    "stop_desc": "",
    "stop_lat": 41.491412,
    "stop_lon": -71.31281,
    "zone_id": "",
    "stop_url": "",
    "location_type": 0,
    "parent_station": "",
    "stop_associated_place": "ciha"
  },
  {
    "stop_id": 1375,
    "stop_code": "",
    "stop_name": "NEWPORT CITY HALL",
    "stop_desc": "",
    "stop_lat": 41.491852,
    "stop_lon": -71.311566,
    "zone_id": "",
    "stop_url": "",
    "location_type": 0,
    "parent_station": "",
    "stop_associated_place": "ciha"
  },
  {
    "stop_id": 1380,
    "stop_code": "",
    "stop_name": "GATEWAY CENTER AT 60 BUS BERTH",
    "stop_desc": "",
    "stop_lat": 41.491412,
    "stop_lon": -71.317803,
    "zone_id": "",
    "stop_url": "",
    "location_type": 0,
    "parent_station": "",
    "stop_associated_place": "gace"
  },
  {
    "stop_id": 1381,
    "stop_code": "",
    "stop_name": "GATEWAY CENTER AT TROLLEY STOP",
    "stop_desc": "",
    "stop_lat": 41.491752,
    "stop_lon": -71.317621,
    "zone_id": "",
    "stop_url": "",
    "location_type": 0,
    "parent_station": "",
    "stop_associated_place": "gace"
  },
  {
    "stop_id": 1382,
    "stop_code": "",
    "stop_name": "GATEWAY CENTER AT 63 BUS BERTH",
    "stop_desc": "",
    "stop_lat": 41.491054,
    "stop_lon": -71.318003,
    "zone_id": "",
    "stop_url": "",
    "location_type": 0,
    "parent_station": "",
    "stop_associated_place": "gace"
  },
  {
    "stop_id": 1383,
    "stop_code": "",
    "stop_name": "GATEWAY CENTER AT 64 BUS BERTH",
    "stop_desc": "",
    "stop_lat": 41.491486,
    "stop_lon": -71.317772,
    "zone_id": "",
    "stop_url": "",
    "location_type": 0,
    "parent_station": "",
    "stop_associated_place": "gace"
  },
  {
    "stop_id": 1384,
    "stop_code": "",
    "stop_name": "GATEWAY CENTER AT 14 BUS BERTH",
    "stop_desc": "",
    "stop_lat": 41.491545,
    "stop_lon": -71.31775,
    "zone_id": "",
    "stop_url": "",
    "location_type": 0,
    "parent_station": "",
    "stop_associated_place": "gace"
  },
  {
    "stop_id": 1395,
    "stop_code": "",
    "stop_name": "BOSTON NECK FS S FERRY",
    "stop_desc": "",
    "stop_lat": 41.492365,
    "stop_lon": -71.437984,
    "zone_id": "",
    "stop_url": "",
    "location_type": 0,
    "parent_station": "",
    "stop_associated_place": ""
  },
  {
    "stop_id": 1400,
    "stop_code": "",
    "stop_name": "BOSTON NECK NS BRIDGETOWN",
    "stop_desc": "",
    "stop_lat": 41.492409,
    "stop_lon": -71.43815,
    "zone_id": "",
    "stop_url": "",
    "location_type": 0,
    "parent_station": "",
    "stop_associated_place": ""
  },
  {
    "stop_id": 1420,
    "stop_code": "",
    "stop_name": "THIRD FS BRIDGE",
    "stop_desc": "",
    "stop_lat": 41.492298,
    "stop_lon": -71.318642,
    "zone_id": "",
    "stop_url": "",
    "location_type": 0,
    "parent_station": "",
    "stop_associated_place": ""
  },
  {
    "stop_id": 1430,
    "stop_code": "",
    "stop_name": "BROADWAY BETWEEN COLLINS & MANN",
    "stop_desc": "",
    "stop_lat": 41.492751,
    "stop_lon": -71.310805,
    "zone_id": "",
    "stop_url": "",
    "location_type": 0,
    "parent_station": "",
    "stop_associated_place": ""
  },
  {
    "stop_id": 1435,
    "stop_code": "",
    "stop_name": "BROADWAY FS AYRAULT",
    "stop_desc": "",
    "stop_lat": 41.493536,
    "stop_lon": -71.309679,
    "zone_id": "",
    "stop_url": "",
    "location_type": 0,
    "parent_station": "",
    "stop_associated_place": ""
  },
  {
    "stop_id": 1450,
    "stop_code": "",
    "stop_name": "BOSTON LAKE NS EDGEWATER",
    "stop_desc": "",
    "stop_lat": 41.494847,
    "stop_lon": -71.437896,
    "zone_id": "",
    "stop_url": "",
    "location_type": 0,
    "parent_station": "",
    "stop_associated_place": ""
  },
  {
    "stop_id": 1455,
    "stop_code": "",
    "stop_name": "BOSTON NECK OPP EDGEWATER",
    "stop_desc": "",
    "stop_lat": 41.494794,
    "stop_lon": -71.437764,
    "zone_id": "",
    "stop_url": "",
    "location_type": 0,
    "parent_station": "",
    "stop_associated_place": ""
  },
  {
    "stop_id": 1460,
    "stop_code": "",
    "stop_name": "TOWER HILL PARK&RIDE",
    "stop_desc": "",
    "stop_lat": 41.495006,
    "stop_lon": -71.456327,
    "zone_id": "",
    "stop_url": "",
    "location_type": 0,
    "parent_station": "",
    "stop_associated_place": ""
  },
  {
    "stop_id": 1461,
    "stop_code": "",
    "stop_name": "RT 1 AFTER GILBERT STUART",
    "stop_desc": "",
    "stop_lat": 41.52415,
    "stop_lon": -71.46495,
    "zone_id": "",
    "stop_url": "",
    "location_type": 0,
    "parent_station": "",
    "stop_associated_place": ""
  },
  {
    "stop_id": 1465,
    "stop_code": "",
    "stop_name": "THIRD AT WALNUT",
    "stop_desc": "",
    "stop_lat": 41.494671,
    "stop_lon": -71.318955,
    "zone_id": "",
    "stop_url": "",
    "location_type": 0,
    "parent_station": "",
    "stop_associated_place": ""
  },
  {
    "stop_id": 1475,
    "stop_code": "",
    "stop_name": "BROADWAY NS CRANSTON",
    "stop_desc": "",
    "stop_lat": 41.49503,
    "stop_lon": -71.308822,
    "zone_id": "",
    "stop_url": "",
    "location_type": 0,
    "parent_station": "",
    "stop_associated_place": ""
  },
  {
    "stop_id": 1480,
    "stop_code": "",
    "stop_name": "BROADWAY NS EQUALITY PARK",
    "stop_desc": "",
    "stop_lat": 41.494471,
    "stop_lon": -71.30915,
    "zone_id": "",
    "stop_url": "",
    "location_type": 0,
    "parent_station": "",
    "stop_associated_place": ""
  },
  {
    "stop_id": 1495,
    "stop_code": "",
    "stop_name": "NARRAGANSETT FS HOWLAND",
    "stop_desc": "",
    "stop_lat": 41.496193,
    "stop_lon": -71.371722,
    "zone_id": "",
    "stop_url": "",
    "location_type": 0,
    "parent_station": "",
    "stop_associated_place": ""
  },
  {
    "stop_id": 1505,
    "stop_code": "",
    "stop_name": "NORTH AT 1 NORTH",
    "stop_desc": "",
    "stop_lat": 41.496551,
    "stop_lon": -71.374702,
    "zone_id": "",
    "stop_url": "",
    "location_type": 0,
    "parent_station": "",
    "stop_associated_place": ""
  },
  {
    "stop_id": 1510,
    "stop_code": "",
    "stop_name": "BROADWAY NS CLINTON",
    "stop_desc": "",
    "stop_lat": 41.496348,
    "stop_lon": -71.308343,
    "zone_id": "",
    "stop_url": "",
    "location_type": 0,
    "parent_station": "",
    "stop_associated_place": ""
  },
  {
    "stop_id": 1515,
    "stop_code": "",
    "stop_name": "NARRAGANSETT AT 20 NARRAGANSETT",
    "stop_desc": "",
    "stop_lat": 41.496371,
    "stop_lon": -71.368745,
    "zone_id": "",
    "stop_url": "",
    "location_type": 0,
    "parent_station": "",
    "stop_associated_place": ""
  },
  {
    "stop_id": 1520,
    "stop_code": "",
    "stop_name": "NARRAGANSETT FS GRINNELL",
    "stop_desc": "",
    "stop_lat": 41.496315,
    "stop_lon": -71.371732,
    "zone_id": "",
    "stop_url": "",
    "location_type": 0,
    "parent_station": "",
    "stop_associated_place": ""
  },
  {
    "stop_id": 1525,
    "stop_code": "",
    "stop_name": "NARRAGANSETT FS E SHORE",
    "stop_desc": "",
    "stop_lat": 41.496382,
    "stop_lon": -71.367405,
    "zone_id": "",
    "stop_url": "",
    "location_type": 0,
    "parent_station": "",
    "stop_associated_place": ""
  },
  {
    "stop_id": 1526,
    "stop_code": "",
    "stop_name": "CONANICUS FS NARRAGANSETT",
    "stop_desc": "",
    "stop_lat": 41.496596,
    "stop_lon": -71.367009,
    "zone_id": "",
    "stop_url": "",
    "location_type": 0,
    "parent_station": "",
    "stop_associated_place": "jame"
  },
  {
    "stop_id": 1530,
    "stop_code": "",
    "stop_name": "THIRD NS LASALLE",
    "stop_desc": "",
    "stop_lat": 41.497507,
    "stop_lon": -71.319305,
    "zone_id": "",
    "stop_url": "",
    "location_type": 0,
    "parent_station": "",
    "stop_associated_place": ""
  },
  {
    "stop_id": 1535,
    "stop_code": "",
    "stop_name": "BOSTON NECK FS BANFIELD",
    "stop_desc": "",
    "stop_lat": 41.497986,
    "stop_lon": -71.4363,
    "zone_id": "",
    "stop_url": "",
    "location_type": 0,
    "parent_station": "",
    "stop_associated_place": ""
  },
  {
    "stop_id": 1540,
    "stop_code": "",
    "stop_name": "BROADWAY NS FRIENDSHIP",
    "stop_desc": "",
    "stop_lat": 41.497991,
    "stop_lon": -71.30734,
    "zone_id": "",
    "stop_url": "",
    "location_type": 0,
    "parent_station": "",
    "stop_associated_place": ""
  },
  {
    "stop_id": 1545,
    "stop_code": "",
    "stop_name": "BOSTON NECK NS PETTAQUAMSCUTT LAKE",
    "stop_desc": "",
    "stop_lat": 41.497968,
    "stop_lon": -71.436521,
    "zone_id": "",
    "stop_url": "",
    "location_type": 0,
    "parent_station": "",
    "stop_associated_place": ""
  },
  {
    "stop_id": 1555,
    "stop_code": "",
    "stop_name": "BROADWAY OPP FRIENDSHIP",
    "stop_desc": "",
    "stop_lat": 41.498142,
    "stop_lon": -71.30741,
    "zone_id": "",
    "stop_url": "",
    "location_type": 0,
    "parent_station": "",
    "stop_associated_place": ""
  },
  {
    "stop_id": 1565,
    "stop_code": "",
    "stop_name": "NORTH NS VALLEY",
    "stop_desc": "",
    "stop_lat": 41.498233,
    "stop_lon": -71.374589,
    "zone_id": "",
    "stop_url": "",
    "location_type": 0,
    "parent_station": "",
    "stop_associated_place": ""
  },
  {
    "stop_id": 1575,
    "stop_code": "",
    "stop_name": "CONANICUS FS KNOWLES",
    "stop_desc": "",
    "stop_lat": 41.496757,
    "stop_lon": -71.367143,
    "zone_id": "",
    "stop_url": "",
    "location_type": 0,
    "parent_station": "",
    "stop_associated_place": "jame"
  },
  {
    "stop_id": 1590,
    "stop_code": "",
    "stop_name": "BROADWAY NS SUMMER",
    "stop_desc": "",
    "stop_lat": 41.499798,
    "stop_lon": -71.306406,
    "zone_id": "",
    "stop_url": "",
    "location_type": 0,
    "parent_station": "",
    "stop_associated_place": ""
  },
  {
    "stop_id": 1595,
    "stop_code": "",
    "stop_name": "BROADWAY NS GIBBS",
    "stop_desc": "",
    "stop_lat": 41.499862,
    "stop_lon": -71.306139,
    "zone_id": "",
    "stop_url": "",
    "location_type": 0,
    "parent_station": "",
    "stop_associated_place": ""
  },
  {
    "stop_id": 1600,
    "stop_code": "",
    "stop_name": "THIRD FS CYPRESS",
    "stop_desc": "",
    "stop_lat": 41.499988,
    "stop_lon": -71.319747,
    "zone_id": "",
    "stop_url": "",
    "location_type": 0,
    "parent_station": "",
    "stop_associated_place": ""
  },
  {
    "stop_id": 1605,
    "stop_code": "",
    "stop_name": "THIRD OPP CYPRESS",
    "stop_desc": "",
    "stop_lat": 41.50043,
    "stop_lon": -71.319726,
    "zone_id": "",
    "stop_url": "",
    "location_type": 0,
    "parent_station": "",
    "stop_associated_place": ""
  },
  {
    "stop_id": 1610,
    "stop_code": "",
    "stop_name": "BOSTON NECK OPP RIVERDELL",
    "stop_desc": "",
    "stop_lat": 41.500947,
    "stop_lon": -71.433596,
    "zone_id": "",
    "stop_url": "",
    "location_type": 0,
    "parent_station": "",
    "stop_associated_place": ""
  },
  {
    "stop_id": 1615,
    "stop_code": "",
    "stop_name": "BOSTON NECK NS RIVERDELL",
    "stop_desc": "",
    "stop_lat": 41.500993,
    "stop_lon": -71.433797,
    "zone_id": "",
    "stop_url": "",
    "location_type": 0,
    "parent_station": "",
    "stop_associated_place": ""
  },
  {
    "stop_id": 1625,
    "stop_code": "",
    "stop_name": "BROADWAY NS BROOKS",
    "stop_desc": "",
    "stop_lat": 41.501179,
    "stop_lon": -71.305113,
    "zone_id": "",
    "stop_url": "",
    "location_type": 0,
    "parent_station": "",
    "stop_associated_place": ""
  },
  {
    "stop_id": 1635,
    "stop_code": "",
    "stop_name": "BROADWAY NS GREEN",
    "stop_desc": "",
    "stop_lat": 41.501871,
    "stop_lon": -71.30471,
    "zone_id": "",
    "stop_url": "",
    "location_type": 0,
    "parent_station": "",
    "stop_associated_place": ""
  },
  {
    "stop_id": 1645,
    "stop_code": "",
    "stop_name": "THIRD AT BAYSIDE VILLAGE",
    "stop_desc": "",
    "stop_lat": 41.501716,
    "stop_lon": -71.319844,
    "zone_id": "",
    "stop_url": "",
    "location_type": 0,
    "parent_station": "",
    "stop_associated_place": ""
  },
  {
    "stop_id": 1650,
    "stop_code": "",
    "stop_name": "THIRD OPP BAYSIDE VILLAGE",
    "stop_desc": "",
    "stop_lat": 41.501766,
    "stop_lon": -71.320017,
    "zone_id": "",
    "stop_url": "",
    "location_type": 0,
    "parent_station": "",
    "stop_associated_place": ""
  },
  {
    "stop_id": 1660,
    "stop_code": "",
    "stop_name": "BOSTON NECK NS INDIAN",
    "stop_desc": "",
    "stop_lat": 41.502256,
    "stop_lon": -71.43213,
    "zone_id": "",
    "stop_url": "",
    "location_type": 0,
    "parent_station": "",
    "stop_associated_place": ""
  },
  {
    "stop_id": 1665,
    "stop_code": "",
    "stop_name": "BROADWAY NS COUNTY",
    "stop_desc": "",
    "stop_lat": 41.502906,
    "stop_lon": -71.303693,
    "zone_id": "",
    "stop_url": "",
    "location_type": 0,
    "parent_station": "",
    "stop_associated_place": ""
  },
  {
    "stop_id": 1670,
    "stop_code": "",
    "stop_name": "BROADWAY NS THURSTON",
    "stop_desc": "",
    "stop_lat": 41.503164,
    "stop_lon": -71.303639,
    "zone_id": "",
    "stop_url": "",
    "location_type": 0,
    "parent_station": "",
    "stop_associated_place": ""
  },
  {
    "stop_id": 1695,
    "stop_code": "",
    "stop_name": "THIRD OPP DYERS GATE",
    "stop_desc": "",
    "stop_lat": 41.503582,
    "stop_lon": -71.320243,
    "zone_id": "",
    "stop_url": "",
    "location_type": 0,
    "parent_station": "",
    "stop_associated_place": ""
  },
  {
    "stop_id": 1705,
    "stop_code": "",
    "stop_name": "BROADWAY NS VERNON",
    "stop_desc": "",
    "stop_lat": 41.503961,
    "stop_lon": -71.302835,
    "zone_id": "",
    "stop_url": "",
    "location_type": 0,
    "parent_station": "",
    "stop_associated_place": ""
  },
  {
    "stop_id": 1715,
    "stop_code": "",
    "stop_name": "THIRD OPP NAVAL HEALTH CLINIC",
    "stop_desc": "",
    "stop_lat": 41.504382,
    "stop_lon": -71.320194,
    "zone_id": "",
    "stop_url": "",
    "location_type": 0,
    "parent_station": "",
    "stop_associated_place": ""
  },
  {
    "stop_id": 1720,
    "stop_code": "",
    "stop_name": "BROADWAY OPP CANONICUS",
    "stop_desc": "",
    "stop_lat": 41.505018,
    "stop_lon": -71.301968,
    "zone_id": "",
    "stop_url": "",
    "location_type": 0,
    "parent_station": "",
    "stop_associated_place": ""
  },
  {
    "stop_id": 1725,
    "stop_code": "",
    "stop_name": "BOSTON NECK FS MINER",
    "stop_desc": "",
    "stop_lat": 41.504953,
    "stop_lon": -71.428414,
    "zone_id": "",
    "stop_url": "",
    "location_type": 0,
    "parent_station": "",
    "stop_associated_place": ""
  },
  {
    "stop_id": 1730,
    "stop_code": "",
    "stop_name": "BOSTON NECK NS MINER",
    "stop_desc": "",
    "stop_lat": 41.505015,
    "stop_lon": -71.42862,
    "zone_id": "",
    "stop_url": "",
    "location_type": 0,
    "parent_station": "",
    "stop_associated_place": ""
  },
  {
    "stop_id": 1735,
    "stop_code": "",
    "stop_name": "BROADWAY NS CANONICUS",
    "stop_desc": "",
    "stop_lat": 41.505043,
    "stop_lon": -71.302186,
    "zone_id": "",
    "stop_url": "",
    "location_type": 0,
    "parent_station": "",
    "stop_associated_place": ""
  },
  {
    "stop_id": 1745,
    "stop_code": "",
    "stop_name": "CONANICUS NS MT HOPE",
    "stop_desc": "",
    "stop_lat": 41.504757,
    "stop_lon": -71.364472,
    "zone_id": "",
    "stop_url": "",
    "location_type": 0,
    "parent_station": "",
    "stop_associated_place": ""
  },
  {
    "stop_id": 1755,
    "stop_code": "",
    "stop_name": "ADMIRAL KALBFUS AT ADMIRALS GATE",
    "stop_desc": "",
    "stop_lat": 41.506695,
    "stop_lon": -71.319325,
    "zone_id": "",
    "stop_url": "",
    "location_type": 0,
    "parent_station": "",
    "stop_associated_place": ""
  },
  {
    "stop_id": 1760,
    "stop_code": "",
    "stop_name": "ADMIRAL KALBFUS NS ROWLAND",
    "stop_desc": "",
    "stop_lat": 41.506191,
    "stop_lon": -71.302662,
    "zone_id": "",
    "stop_url": "",
    "location_type": 0,
    "parent_station": "",
    "stop_associated_place": "brak"
  },
  {
    "stop_id": 1770,
    "stop_code": "",
    "stop_name": "ADMIRAL KALBFUS OPP ROWLAND",
    "stop_desc": "",
    "stop_lat": 41.506187,
    "stop_lon": -71.302274,
    "zone_id": "",
    "stop_url": "",
    "location_type": 0,
    "parent_station": "",
    "stop_associated_place": "brak"
  },
  {
    "stop_id": 1775,
    "stop_code": "",
    "stop_name": "CONNELL AT NEWPORT TIRE",
    "stop_desc": "",
    "stop_lat": 41.507683,
    "stop_lon": -71.317696,
    "zone_id": "",
    "stop_url": "",
    "location_type": 0,
    "parent_station": "",
    "stop_associated_place": ""
  },
  {
    "stop_id": 1776,
    "stop_code": "",
    "stop_name": "CONANICUS NS MT HOPE",
    "stop_desc": "",
    "stop_lat": 41.50488,
    "stop_lon": -71.364623,
    "zone_id": "",
    "stop_url": "",
    "location_type": 0,
    "parent_station": "",
    "stop_associated_place": ""
  },
  {
    "stop_id": 1777,
    "stop_code": "",
    "stop_name": "E SHORE NS FREEBODY (RI TURNPIKE AUTHORITY)",
    "stop_desc": "",
    "stop_lat": 41.5111,
    "stop_lon": -71.36526,
    "zone_id": "",
    "stop_url": "",
    "location_type": 0,
    "parent_station": "",
    "stop_associated_place": ""
  },
  {
    "stop_id": 1810,
    "stop_code": "",
    "stop_name": "ADMIRAL KALBFUS AT NEWPORT GRAND",
    "stop_desc": "",
    "stop_lat": 41.507618,
    "stop_lon": -71.313161,
    "zone_id": "",
    "stop_url": "",
    "location_type": 0,
    "parent_station": "",
    "stop_associated_place": ""
  },
  {
    "stop_id": 1820,
    "stop_code": "",
    "stop_name": "W MAIN NS DUDLEY",
    "stop_desc": "",
    "stop_lat": 41.507229,
    "stop_lon": -71.301742,
    "zone_id": "",
    "stop_url": "",
    "location_type": 0,
    "parent_station": "",
    "stop_associated_place": ""
  },
  {
    "stop_id": 1830,
    "stop_code": "",
    "stop_name": "ADMIRAL KALBFUS OPP NEWPORT GRAND",
    "stop_desc": "",
    "stop_lat": 41.507899,
    "stop_lon": -71.312605,
    "zone_id": "",
    "stop_url": "",
    "location_type": 0,
    "parent_station": "",
    "stop_associated_place": ""
  },
  {
    "stop_id": 1835,
    "stop_code": "",
    "stop_name": "CONNELL OPP NISSAN VOLVO",
    "stop_desc": "",
    "stop_lat": 41.508102,
    "stop_lon": -71.317583,
    "zone_id": "",
    "stop_url": "",
    "location_type": 0,
    "parent_station": "",
    "stop_associated_place": ""
  },
  {
    "stop_id": 1850,
    "stop_code": "",
    "stop_name": "GIRARD NS ADM KALBFUS",
    "stop_desc": "",
    "stop_lat": 41.508148,
    "stop_lon": -71.311638,
    "zone_id": "",
    "stop_url": "",
    "location_type": 0,
    "parent_station": "",
    "stop_associated_place": ""
  },
  {
    "stop_id": 1860,
    "stop_code": "",
    "stop_name": "GIRARD NS SUNSET",
    "stop_desc": "",
    "stop_lat": 41.51296,
    "stop_lon": -71.31328,
    "zone_id": "",
    "stop_url": "",
    "location_type": 0,
    "parent_station": "",
    "stop_associated_place": ""
  },
  {
    "stop_id": 1865,
    "stop_code": "",
    "stop_name": "CONNELL AT NEWPORT ADULTS VIDEO",
    "stop_desc": "",
    "stop_lat": 41.511546,
    "stop_lon": -71.318059,
    "zone_id": "",
    "stop_url": "",
    "location_type": 0,
    "parent_station": "",
    "stop_associated_place": ""
  },
  {
    "stop_id": 1870,
    "stop_code": "",
    "stop_name": "NEWPORT TOWNE CENTER (LAUNDROMAT)",
    "stop_desc": "",
    "stop_lat": 41.511926,
    "stop_lon": -71.317415,
    "zone_id": "",
    "stop_url": "",
    "location_type": 0,
    "parent_station": "",
    "stop_associated_place": ""
  },
  {
    "stop_id": 1875,
    "stop_code": "",
    "stop_name": "BOSTON NECK NS FERRY",
    "stop_desc": "",
    "stop_lat": 41.507607,
    "stop_lon": -71.42496,
    "zone_id": "",
    "stop_url": "",
    "location_type": 0,
    "parent_station": "",
    "stop_associated_place": ""
  },
  {
    "stop_id": 1880,
    "stop_code": "",
    "stop_name": "BOSTON NECK FS FERRY",
    "stop_desc": "",
    "stop_lat": 41.507661,
    "stop_lon": -71.425119,
    "zone_id": "",
    "stop_url": "",
    "location_type": 0,
    "parent_station": "",
    "stop_associated_place": ""
  },
  {
    "stop_id": 1890,
    "stop_code": "",
    "stop_name": "NEWPORT TOWNE CENTER (WALMART)",
    "stop_desc": "",
    "stop_lat": 41.510625,
    "stop_lon": -71.316887,
    "zone_id": "",
    "stop_url": "",
    "location_type": 0,
    "parent_station": "",
    "stop_associated_place": ""
  },
  {
    "stop_id": 1895,
    "stop_code": "",
    "stop_name": "NEWPORT TOWNE CENTER (STOP&SHOP)",
    "stop_desc": "",
    "stop_lat": 41.508475,
    "stop_lon": -71.31643,
    "zone_id": "",
    "stop_url": "",
    "location_type": 0,
    "parent_station": "",
    "stop_associated_place": "nema"
  },
  {
    "stop_id": 1900,
    "stop_code": "",
    "stop_name": "W MAIN AT RODEWAY INN",
    "stop_desc": "",
    "stop_lat": 41.506577,
    "stop_lon": -71.301524,
    "zone_id": "",
    "stop_url": "",
    "location_type": 0,
    "parent_station": "",
    "stop_associated_place": ""
  },
  {
    "stop_id": 1905,
    "stop_code": "",
    "stop_name": "HILLSIDE NS EISENHOWER",
    "stop_desc": "",
    "stop_lat": 41.509679,
    "stop_lon": -71.307751,
    "zone_id": "",
    "stop_url": "",
    "location_type": 0,
    "parent_station": "",
    "stop_associated_place": ""
  },
  {
    "stop_id": 1915,
    "stop_code": "",
    "stop_name": "HILLSIDE NS BEACON",
    "stop_desc": "",
    "stop_lat": 41.511967,
    "stop_lon": -71.308767,
    "zone_id": "",
    "stop_url": "",
    "location_type": 0,
    "parent_station": "",
    "stop_associated_place": ""
  },
  {
    "stop_id": 1920,
    "stop_code": "",
    "stop_name": "W MAIN NS STOCKTON",
    "stop_desc": "",
    "stop_lat": 41.509393,
    "stop_lon": -71.301921,
    "zone_id": "",
    "stop_url": "",
    "location_type": 0,
    "parent_station": "",
    "stop_associated_place": ""
  },
  {
    "stop_id": 1940,
    "stop_code": "",
    "stop_name": "W MAIN FS ROSEDALE",
    "stop_desc": "",
    "stop_lat": 41.511214,
    "stop_lon": -71.302368,
    "zone_id": "",
    "stop_url": "",
    "location_type": 0,
    "parent_station": "",
    "stop_associated_place": ""
  },
  {
    "stop_id": 1945,
    "stop_code": "",
    "stop_name": "WYOMING PARK&RIDE (RICHMOND)",
    "stop_desc": "",
    "stop_lat": 41.511974,
    "stop_lon": -71.689832,
    "zone_id": "",
    "stop_url": "",
    "location_type": 0,
    "parent_station": "",
    "stop_associated_place": "wyom"
  },
  {
    "stop_id": 1955,
    "stop_code": "",
    "stop_name": "W MAIN AT 211 W MAIN",
    "stop_desc": "",
    "stop_lat": 41.511411,
    "stop_lon": -71.302233,
    "zone_id": "",
    "stop_url": "",
    "location_type": 0,
    "parent_station": "",
    "stop_associated_place": ""
  },
  {
    "stop_id": 1975,
    "stop_code": "",
    "stop_name": "HILLSIDE OPP SERGEANT GREENE",
    "stop_desc": "",
    "stop_lat": 41.51288,
    "stop_lon": -71.309615,
    "zone_id": "",
    "stop_url": "",
    "location_type": 0,
    "parent_station": "",
    "stop_associated_place": ""
  },
  {
    "stop_id": 1976,
    "stop_code": "",
    "stop_name": "HILLSIDE OPP 218 HILLSIDE",
    "stop_desc": "",
    "stop_lat": 41.514642,
    "stop_lon": -71.309741,
    "zone_id": "",
    "stop_url": "",
    "location_type": 0,
    "parent_station": "",
    "stop_associated_place": ""
  },
  {
    "stop_id": 1980,
    "stop_code": "",
    "stop_name": "W MAIN FS BEACON",
    "stop_desc": "",
    "stop_lat": 41.513742,
    "stop_lon": -71.301746,
    "zone_id": "",
    "stop_url": "",
    "location_type": 0,
    "parent_station": "",
    "stop_associated_place": ""
  },
  {
    "stop_id": 1990,
    "stop_code": "",
    "stop_name": "W MAIN FS BEACON",
    "stop_desc": "",
    "stop_lat": 41.513882,
    "stop_lon": -71.301579,
    "zone_id": "",
    "stop_url": "",
    "location_type": 0,
    "parent_station": "",
    "stop_associated_place": ""
  },
  {
    "stop_id": 2005,
    "stop_code": "",
    "stop_name": "HILLSIDE AT 216 HILLSIDE",
    "stop_desc": "",
    "stop_lat": 41.514646,
    "stop_lon": -71.309865,
    "zone_id": "",
    "stop_url": "",
    "location_type": 0,
    "parent_station": "",
    "stop_associated_place": ""
  },
  {
    "stop_id": 2010,
    "stop_code": "",
    "stop_name": "GIRARD FS FESTIVAL FIELD APARTMENTS",
    "stop_desc": "",
    "stop_lat": 41.511683,
    "stop_lon": -71.313096,
    "zone_id": "",
    "stop_url": "",
    "location_type": 0,
    "parent_station": "",
    "stop_associated_place": ""
  },
  {
    "stop_id": 2015,
    "stop_code": "",
    "stop_name": "W MAIN AT MOBIL STATION",
    "stop_desc": "",
    "stop_lat": 41.515144,
    "stop_lon": -71.301354,
    "zone_id": "",
    "stop_url": "",
    "location_type": 0,
    "parent_station": "",
    "stop_associated_place": ""
  },
  {
    "stop_id": 2020,
    "stop_code": "",
    "stop_name": "CONNELL NS MAPLE",
    "stop_desc": "",
    "stop_lat": 41.515054,
    "stop_lon": -71.316041,
    "zone_id": "",
    "stop_url": "",
    "location_type": 0,
    "parent_station": "",
    "stop_associated_place": "gafo"
  },
  {
    "stop_id": 2025,
    "stop_code": "",
    "stop_name": "CONNELL OPP HILLMART",
    "stop_desc": "",
    "stop_lat": 41.515038,
    "stop_lon": -71.316217,
    "zone_id": "",
    "stop_url": "",
    "location_type": 0,
    "parent_station": "",
    "stop_associated_place": "gafo"
  },
  {
    "stop_id": 2035,
    "stop_code": "",
    "stop_name": "W MAIN FS SMYTHE",
    "stop_desc": "",
    "stop_lat": 41.51556,
    "stop_lon": -71.30103,
    "zone_id": "",
    "stop_url": "",
    "location_type": 0,
    "parent_station": "",
    "stop_associated_place": "twmi"
  },
  {
    "stop_id": 2055,
    "stop_code": "",
    "stop_name": "MAPLE NS JOHN CHAFFEE",
    "stop_desc": "",
    "stop_lat": 41.515894,
    "stop_lon": -71.312682,
    "zone_id": "",
    "stop_url": "",
    "location_type": 0,
    "parent_station": "",
    "stop_associated_place": ""
  },
  {
    "stop_id": 2060,
    "stop_code": "",
    "stop_name": "MAPLE AT HEAD START CENTER",
    "stop_desc": "",
    "stop_lat": 41.516109,
    "stop_lon": -71.312361,
    "zone_id": "",
    "stop_url": "",
    "location_type": 0,
    "parent_station": "",
    "stop_associated_place": ""
  },
  {
    "stop_id": 2065,
    "stop_code": "",
    "stop_name": "BOSTON NECK OPP CHARLOTTE",
    "stop_desc": "",
    "stop_lat": 41.516749,
    "stop_lon": -71.423412,
    "zone_id": "",
    "stop_url": "",
    "location_type": 0,
    "parent_station": "",
    "stop_associated_place": ""
  },
  {
    "stop_id": 2070,
    "stop_code": "",
    "stop_name": "BOSTON NECK FS CHARLOTTE",
    "stop_desc": "",
    "stop_lat": 41.516702,
    "stop_lon": -71.42324,
    "zone_id": "",
    "stop_url": "",
    "location_type": 0,
    "parent_station": "",
    "stop_associated_place": ""
  },
  {
    "stop_id": 2075,
    "stop_code": "",
    "stop_name": "W MAIN AT BANK OF NEWPORT",
    "stop_desc": "",
    "stop_lat": 41.517222,
    "stop_lon": -71.300606,
    "zone_id": "",
    "stop_url": "",
    "location_type": 0,
    "parent_station": "",
    "stop_associated_place": "twmi"
  },
  {
    "stop_id": 2080,
    "stop_code": "",
    "stop_name": "E MAIN OPP NEWPORT MART",
    "stop_desc": "",
    "stop_lat": 41.517094,
    "stop_lon": -71.299326,
    "zone_id": "",
    "stop_url": "",
    "location_type": 0,
    "parent_station": "",
    "stop_associated_place": "aqsh"
  },
  {
    "stop_id": 2085,
    "stop_code": "",
    "stop_name": "E MAIN AT NEWPORT MARKET",
    "stop_desc": "",
    "stop_lat": 41.517258,
    "stop_lon": -71.299285,
    "zone_id": "",
    "stop_url": "",
    "location_type": 0,
    "parent_station": "",
    "stop_associated_place": "twmi"
  },
  {
    "stop_id": 2090,
    "stop_code": "",
    "stop_name": "CODDINGTON NS JOHN CHAFEE",
    "stop_desc": "",
    "stop_lat": 41.518131,
    "stop_lon": -71.313698,
    "zone_id": "",
    "stop_url": "",
    "location_type": 0,
    "parent_station": "",
    "stop_associated_place": ""
  },
  {
    "stop_id": 2100,
    "stop_code": "",
    "stop_name": "E MAIN OPP 114 E MAIN",
    "stop_desc": "",
    "stop_lat": 41.517743,
    "stop_lon": -71.297004,
    "zone_id": "",
    "stop_url": "",
    "location_type": 0,
    "parent_station": "",
    "stop_associated_place": ""
  },
  {
    "stop_id": 2105,
    "stop_code": "",
    "stop_name": "CODDINGTON NS W MAIN",
    "stop_desc": "",
    "stop_lat": 41.518233,
    "stop_lon": -71.300648,
    "zone_id": "",
    "stop_url": "",
    "location_type": 0,
    "parent_station": "",
    "stop_associated_place": ""
  },
  {
    "stop_id": 2125,
    "stop_code": "",
    "stop_name": "E MAIN AT SHELL GAS",
    "stop_desc": "",
    "stop_lat": 41.518568,
    "stop_lon": -71.294068,
    "zone_id": "",
    "stop_url": "",
    "location_type": 0,
    "parent_station": "",
    "stop_associated_place": "emva"
  },
  {
    "stop_id": 2140,
    "stop_code": "",
    "stop_name": "CODDINGTON OPP HARBOR BASE INN",
    "stop_desc": "",
    "stop_lat": 41.519376,
    "stop_lon": -71.311716,
    "zone_id": "",
    "stop_url": "",
    "location_type": 0,
    "parent_station": "",
    "stop_associated_place": ""
  },
  {
    "stop_id": 2145,
    "stop_code": "",
    "stop_name": "CODDINGTON NS NIAGRA",
    "stop_desc": "",
    "stop_lat": 41.518598,
    "stop_lon": -71.30307,
    "zone_id": "",
    "stop_url": "",
    "location_type": 0,
    "parent_station": "",
    "stop_associated_place": ""
  },
  {
    "stop_id": 2155,
    "stop_code": "",
    "stop_name": "CODDINGTON NS SHERMAN",
    "stop_desc": "",
    "stop_lat": 41.518855,
    "stop_lon": -71.306072,
    "zone_id": "",
    "stop_url": "",
    "location_type": 0,
    "parent_station": "",
    "stop_associated_place": ""
  },
  {
    "stop_id": 2170,
    "stop_code": "",
    "stop_name": "CODDINGTON OPP SHERMAN",
    "stop_desc": "",
    "stop_lat": 41.519008,
    "stop_lon": -71.305795,
    "zone_id": "",
    "stop_url": "",
    "location_type": 0,
    "parent_station": "",
    "stop_associated_place": ""
  },
  {
    "stop_id": 2175,
    "stop_code": "",
    "stop_name": "CODDINGTON AT RIPTA GARAGE",
    "stop_desc": "",
    "stop_lat": 41.519275,
    "stop_lon": -71.309746,
    "zone_id": "",
    "stop_url": "",
    "location_type": 0,
    "parent_station": "",
    "stop_associated_place": "miga"
  },
  {
    "stop_id": 2185,
    "stop_code": "",
    "stop_name": "E MAIN NS VALLEY",
    "stop_desc": "",
    "stop_lat": 41.519101,
    "stop_lon": -71.293092,
    "zone_id": "",
    "stop_url": "",
    "location_type": 0,
    "parent_station": "",
    "stop_associated_place": "emva"
  },
  {
    "stop_id": 2195,
    "stop_code": "",
    "stop_name": "W MAIN NS MAPLEWOOD",
    "stop_desc": "",
    "stop_lat": 41.519281,
    "stop_lon": -71.299718,
    "zone_id": "",
    "stop_url": "",
    "location_type": 0,
    "parent_station": "",
    "stop_associated_place": ""
  },
  {
    "stop_id": 2200,
    "stop_code": "",
    "stop_name": "CODDINGTON OPP RIPTA GARAGE",
    "stop_desc": "",
    "stop_lat": 41.519474,
    "stop_lon": -71.309638,
    "zone_id": "",
    "stop_url": "",
    "location_type": 0,
    "parent_station": "",
    "stop_associated_place": "miga"
  },
  {
    "stop_id": 2205,
    "stop_code": "",
    "stop_name": "E MAIN NS ENTERPRISE",
    "stop_desc": "",
    "stop_lat": 41.519548,
    "stop_lon": -71.290906,
    "zone_id": "",
    "stop_url": "",
    "location_type": 0,
    "parent_station": "",
    "stop_associated_place": ""
  },
  {
    "stop_id": 2210,
    "stop_code": "",
    "stop_name": "E MAIN FS ENTERPRISE",
    "stop_desc": "",
    "stop_lat": 41.519677,
    "stop_lon": -71.291209,
    "zone_id": "",
    "stop_url": "",
    "location_type": 0,
    "parent_station": "",
    "stop_associated_place": ""
  },
  {
    "stop_id": 2215,
    "stop_code": "",
    "stop_name": "E MAIN AT 351 E MAIN",
    "stop_desc": "",
    "stop_lat": 41.520224,
    "stop_lon": -71.288675,
    "zone_id": "",
    "stop_url": "",
    "location_type": 0,
    "parent_station": "",
    "stop_associated_place": ""
  },
  {
    "stop_id": 2230,
    "stop_code": "",
    "stop_name": "VALLEY OPP CHESTNUT HILL",
    "stop_desc": "",
    "stop_lat": 41.520791,
    "stop_lon": -71.294159,
    "zone_id": "",
    "stop_url": "",
    "location_type": 0,
    "parent_station": "",
    "stop_associated_place": ""
  },
  {
    "stop_id": 2235,
    "stop_code": "",
    "stop_name": "W MAIN NS OAKWOOD",
    "stop_desc": "",
    "stop_lat": 41.521651,
    "stop_lon": -71.298915,
    "zone_id": "",
    "stop_url": "",
    "location_type": 0,
    "parent_station": "",
    "stop_associated_place": ""
  },
  {
    "stop_id": 2240,
    "stop_code": "",
    "stop_name": "E MAIN NS FOREST",
    "stop_desc": "",
    "stop_lat": 41.521047,
    "stop_lon": -71.285532,
    "zone_id": "",
    "stop_url": "",
    "location_type": 0,
    "parent_station": "",
    "stop_associated_place": ""
  },
  {
    "stop_id": 2245,
    "stop_code": "",
    "stop_name": "BOSTON NECK FS HOMESTEAD",
    "stop_desc": "",
    "stop_lat": 41.521254,
    "stop_lon": -71.424046,
    "zone_id": "",
    "stop_url": "",
    "location_type": 0,
    "parent_station": "",
    "stop_associated_place": ""
  },
  {
    "stop_id": 2250,
    "stop_code": "",
    "stop_name": "BOSTON NECK OPP SNUFF MILL",
    "stop_desc": "",
    "stop_lat": 41.52242,
    "stop_lon": -71.423628,
    "zone_id": "",
    "stop_url": "",
    "location_type": 0,
    "parent_station": "",
    "stop_associated_place": ""
  },
  {
    "stop_id": 2255,
    "stop_code": "",
    "stop_name": "E MAIN NS FOREST",
    "stop_desc": "",
    "stop_lat": 41.521105,
    "stop_lon": -71.285845,
    "zone_id": "",
    "stop_url": "",
    "location_type": 0,
    "parent_station": "",
    "stop_associated_place": ""
  },
  {
    "stop_id": 2260,
    "stop_code": "",
    "stop_name": "RT 1 AT 2299 TOWER HILL",
    "stop_desc": "",
    "stop_lat": 41.514921,
    "stop_lon": -71.461385,
    "zone_id": "",
    "stop_url": "",
    "location_type": 0,
    "parent_station": "",
    "stop_associated_place": ""
  },
  {
    "stop_id": 2265,
    "stop_code": "",
    "stop_name": "E MAIN NS AQUIDNECK",
    "stop_desc": "",
    "stop_lat": 41.521684,
    "stop_lon": -71.283372,
    "zone_id": "",
    "stop_url": "",
    "location_type": 0,
    "parent_station": "",
    "stop_associated_place": ""
  },
  {
    "stop_id": 2270,
    "stop_code": "",
    "stop_name": "E MAIN FS AQUIDNECK",
    "stop_desc": "",
    "stop_lat": 41.521665,
    "stop_lon": -71.28407,
    "zone_id": "",
    "stop_url": "",
    "location_type": 0,
    "parent_station": "",
    "stop_associated_place": ""
  },
  {
    "stop_id": 2280,
    "stop_code": "",
    "stop_name": "VALLEY OPP NAPA AUTO",
    "stop_desc": "",
    "stop_lat": 41.521838,
    "stop_lon": -71.29474,
    "zone_id": "",
    "stop_url": "",
    "location_type": 0,
    "parent_station": "",
    "stop_associated_place": ""
  },
  {
    "stop_id": 2285,
    "stop_code": "",
    "stop_name": "E MAIN AT 644 E MAIN",
    "stop_desc": "",
    "stop_lat": 41.52421,
    "stop_lon": -71.279173,
    "zone_id": "",
    "stop_url": "",
    "location_type": 0,
    "parent_station": "",
    "stop_associated_place": ""
  },
  {
    "stop_id": 2290,
    "stop_code": "",
    "stop_name": "E MAIN FS WYATT",
    "stop_desc": "",
    "stop_lat": 41.522861,
    "stop_lon": -71.281137,
    "zone_id": "",
    "stop_url": "",
    "location_type": 0,
    "parent_station": "",
    "stop_associated_place": ""
  },
  {
    "stop_id": 2295,
    "stop_code": "",
    "stop_name": "W MAIN AT MIDDLETOWN PUBLIC LIBRARY",
    "stop_desc": "",
    "stop_lat": 41.521907,
    "stop_lon": -71.299019,
    "zone_id": "",
    "stop_url": "",
    "location_type": 0,
    "parent_station": "",
    "stop_associated_place": "amex"
  },
  {
    "stop_id": 2300,
    "stop_code": "",
    "stop_name": "W MAIN NS VALLEY",
    "stop_desc": "",
    "stop_lat": 41.523403,
    "stop_lon": -71.298232,
    "zone_id": "",
    "stop_url": "",
    "location_type": 0,
    "parent_station": "",
    "stop_associated_place": ""
  },
  {
    "stop_id": 2305,
    "stop_code": "",
    "stop_name": "VALLEY NS W MAIN",
    "stop_desc": "",
    "stop_lat": 41.523825,
    "stop_lon": -71.297541,
    "zone_id": "",
    "stop_url": "",
    "location_type": 0,
    "parent_station": "",
    "stop_associated_place": ""
  },
  {
    "stop_id": 2310,
    "stop_code": "",
    "stop_name": "W MAIN OPP VALLEY",
    "stop_desc": "",
    "stop_lat": 41.524021,
    "stop_lon": -71.298223,
    "zone_id": "",
    "stop_url": "",
    "location_type": 0,
    "parent_station": "",
    "stop_associated_place": ""
  },
  {
    "stop_id": 2315,
    "stop_code": "",
    "stop_name": "W MAIN FS WOOLSEY",
    "stop_desc": "",
    "stop_lat": 41.524878,
    "stop_lon": -71.29768,
    "zone_id": "",
    "stop_url": "",
    "location_type": 0,
    "parent_station": "",
    "stop_associated_place": ""
  },
  {
    "stop_id": 2320,
    "stop_code": "",
    "stop_name": "BOSTON NECK OPP 1865 BOSTON NECK",
    "stop_desc": "",
    "stop_lat": 41.524558,
    "stop_lon": -71.423991,
    "zone_id": "",
    "stop_url": "",
    "location_type": 0,
    "parent_station": "",
    "stop_associated_place": ""
  },
  {
    "stop_id": 2325,
    "stop_code": "",
    "stop_name": "BOSTON NECK NS BARBERS HEIGHTS",
    "stop_desc": "",
    "stop_lat": 41.524298,
    "stop_lon": -71.424082,
    "zone_id": "",
    "stop_url": "",
    "location_type": 0,
    "parent_station": "",
    "stop_associated_place": ""
  },
  {
    "stop_id": 2335,
    "stop_code": "",
    "stop_name": "W MAIN NS CHASES",
    "stop_desc": "",
    "stop_lat": 41.525923,
    "stop_lon": -71.297526,
    "zone_id": "",
    "stop_url": "",
    "location_type": 0,
    "parent_station": "",
    "stop_associated_place": ""
  },
  {
    "stop_id": 2340,
    "stop_code": "",
    "stop_name": "E MAIN NS TURNER",
    "stop_desc": "",
    "stop_lat": 41.52588,
    "stop_lon": -71.276159,
    "zone_id": "",
    "stop_url": "",
    "location_type": 0,
    "parent_station": "",
    "stop_associated_place": ""
  },
  {
    "stop_id": 2345,
    "stop_code": "",
    "stop_name": "E MAIN OPP TURNER",
    "stop_desc": "",
    "stop_lat": 41.526101,
    "stop_lon": -71.276117,
    "zone_id": "",
    "stop_url": "",
    "location_type": 0,
    "parent_station": "",
    "stop_associated_place": ""
  },
  {
    "stop_id": 2360,
    "stop_code": "",
    "stop_name": "RT 1A & RT 138 PARK&RIDE (curbside)",
    "stop_desc": "",
    "stop_lat": 41.526992,
    "stop_lon": -71.425556,
    "zone_id": "",
    "stop_url": "",
    "location_type": 0,
    "parent_station": "",
    "stop_associated_place": "rt1a"
  },
  {
    "stop_id": 2361,
    "stop_code": "",
    "stop_name": "TASHTASSUCK FS HELM",
    "stop_desc": "",
    "stop_lat": 41.525593,
    "stop_lon": -71.385276,
    "zone_id": "",
    "stop_url": "",
    "location_type": 0,
    "parent_station": "",
    "stop_associated_place": ""
  },
  {
    "stop_id": 2365,
    "stop_code": "",
    "stop_name": "W MAIN AT ALL SAINTS ACADEMY",
    "stop_desc": "",
    "stop_lat": 41.527305,
    "stop_lon": -71.296415,
    "zone_id": "",
    "stop_url": "",
    "location_type": 0,
    "parent_station": "",
    "stop_associated_place": ""
  },
  {
    "stop_id": 2370,
    "stop_code": "",
    "stop_name": "BOSTON NECK NS RT 138 WEST [ON-RAMP]",
    "stop_desc": "",
    "stop_lat": 41.530551,
    "stop_lon": -71.428171,
    "zone_id": "",
    "stop_url": "",
    "location_type": 0,
    "parent_station": "",
    "stop_associated_place": ""
  },
  {
    "stop_id": 2380,
    "stop_code": "",
    "stop_name": "NUWC GATE 17",
    "stop_desc": "",
    "stop_lat": 41.529204,
    "stop_lon": -71.307644,
    "zone_id": "",
    "stop_url": "",
    "location_type": 0,
    "parent_station": "",
    "stop_associated_place": "ga17"
  },
  {
    "stop_id": 2385,
    "stop_code": "",
    "stop_name": "W MAIN AT 936 W MAIN",
    "stop_desc": "",
    "stop_lat": 41.528018,
    "stop_lon": -71.296217,
    "zone_id": "",
    "stop_url": "",
    "location_type": 0,
    "parent_station": "",
    "stop_associated_place": ""
  },
  {
    "stop_id": 2390,
    "stop_code": "",
    "stop_name": "E MAIN OPP CHAVES GARDENS",
    "stop_desc": "",
    "stop_lat": 41.530294,
    "stop_lon": -71.272856,
    "zone_id": "",
    "stop_url": "",
    "location_type": 0,
    "parent_station": "",
    "stop_associated_place": ""
  },
  {
    "stop_id": 2395,
    "stop_code": "",
    "stop_name": "E MAIN NS MEADOW",
    "stop_desc": "",
    "stop_lat": 41.529704,
    "stop_lon": -71.273136,
    "zone_id": "",
    "stop_url": "",
    "location_type": 0,
    "parent_station": "",
    "stop_associated_place": ""
  },
  {
    "stop_id": 2405,
    "stop_code": "",
    "stop_name": "W MAIN AT 999 W MAIN (PLAZA)",
    "stop_desc": "",
    "stop_lat": 41.529581,
    "stop_lon": -71.294749,
    "zone_id": "",
    "stop_url": "",
    "location_type": 0,
    "parent_station": "",
    "stop_associated_place": ""
  },
  {
    "stop_id": 2410,
    "stop_code": "",
    "stop_name": "W MAIN OPP 999 W MAIN",
    "stop_desc": "",
    "stop_lat": 41.529656,
    "stop_lon": -71.294937,
    "zone_id": "",
    "stop_url": "",
    "location_type": 0,
    "parent_station": "",
    "stop_associated_place": ""
  },
  {
    "stop_id": 2415,
    "stop_code": "",
    "stop_name": "W MAIN NS FOREST",
    "stop_desc": "",
    "stop_lat": 41.530667,
    "stop_lon": -71.293986,
    "zone_id": "",
    "stop_url": "",
    "location_type": 0,
    "parent_station": "",
    "stop_associated_place": ""
  },
  {
    "stop_id": 2425,
    "stop_code": "",
    "stop_name": "W MAIN OPP FOREST",
    "stop_desc": "",
    "stop_lat": 41.531021,
    "stop_lon": -71.293965,
    "zone_id": "",
    "stop_url": "",
    "location_type": 0,
    "parent_station": "",
    "stop_associated_place": ""
  },
  {
    "stop_id": 2430,
    "stop_code": "",
    "stop_name": "E MAIN NS OLIPHANT",
    "stop_desc": "",
    "stop_lat": 41.53186,
    "stop_lon": -71.271331,
    "zone_id": "",
    "stop_url": "",
    "location_type": 0,
    "parent_station": "",
    "stop_associated_place": ""
  },
  {
    "stop_id": 2435,
    "stop_code": "",
    "stop_name": "E MAIN NS OLIPHANT",
    "stop_desc": "",
    "stop_lat": 41.532157,
    "stop_lon": -71.271246,
    "zone_id": "",
    "stop_url": "",
    "location_type": 0,
    "parent_station": "",
    "stop_associated_place": ""
  },
  {
    "stop_id": 2440,
    "stop_code": "",
    "stop_name": "W MAIN NS VANICEK",
    "stop_desc": "",
    "stop_lat": 41.532627,
    "stop_lon": -71.293429,
    "zone_id": "",
    "stop_url": "",
    "location_type": 0,
    "parent_station": "",
    "stop_associated_place": ""
  },
  {
    "stop_id": 2445,
    "stop_code": "",
    "stop_name": "W MAIN AT CARDI'S FURNITURE",
    "stop_desc": "",
    "stop_lat": 41.533073,
    "stop_lon": -71.29307,
    "zone_id": "",
    "stop_url": "",
    "location_type": 0,
    "parent_station": "",
    "stop_associated_place": ""
  },
  {
    "stop_id": 2455,
    "stop_code": "",
    "stop_name": "W MAIN NS BRIGHT IDEAS",
    "stop_desc": "",
    "stop_lat": 41.534933,
    "stop_lon": -71.292692,
    "zone_id": "",
    "stop_url": "",
    "location_type": 0,
    "parent_station": "",
    "stop_associated_place": ""
  },
  {
    "stop_id": 2460,
    "stop_code": "",
    "stop_name": "W MAIN AT MIDDLETOWN SQUARE PLAZA",
    "stop_desc": "",
    "stop_lat": 41.534557,
    "stop_lon": -71.292583,
    "zone_id": "",
    "stop_url": "",
    "location_type": 0,
    "parent_station": "",
    "stop_associated_place": ""
  },
  {
    "stop_id": 2470,
    "stop_code": "",
    "stop_name": "W MAIN NS BROWNS LANE SHOPPING CTR",
    "stop_desc": "",
    "stop_lat": 41.53788,
    "stop_lon": -71.291856,
    "zone_id": "",
    "stop_url": "",
    "location_type": 0,
    "parent_station": "",
    "stop_associated_place": "wmss"
  },
  {
    "stop_id": 2475,
    "stop_code": "",
    "stop_name": "STOP&SHOP (WEST MAIN ROAD - MIDDLETOWN)",
    "stop_desc": "",
    "stop_lat": 41.536636,
    "stop_lon": -71.293336,
    "zone_id": "",
    "stop_url": "",
    "location_type": 0,
    "parent_station": "",
    "stop_associated_place": "stsm"
  },
  {
    "stop_id": 2480,
    "stop_code": "",
    "stop_name": "W MAIN AT 1397 W MAIN",
    "stop_desc": "",
    "stop_lat": 41.537388,
    "stop_lon": -71.291786,
    "zone_id": "",
    "stop_url": "",
    "location_type": 0,
    "parent_station": "",
    "stop_associated_place": ""
  },
  {
    "stop_id": 2495,
    "stop_code": "",
    "stop_name": "E MAIN OPP MITCHELL",
    "stop_desc": "",
    "stop_lat": 41.538183,
    "stop_lon": -71.265849,
    "zone_id": "",
    "stop_url": "",
    "location_type": 0,
    "parent_station": "",
    "stop_associated_place": ""
  },
  {
    "stop_id": 2500,
    "stop_code": "",
    "stop_name": "E MAIN NS MITCHELLS",
    "stop_desc": "",
    "stop_lat": 41.537955,
    "stop_lon": -71.265797,
    "zone_id": "",
    "stop_url": "",
    "location_type": 0,
    "parent_station": "",
    "stop_associated_place": ""
  },
  {
    "stop_id": 2505,
    "stop_code": "",
    "stop_name": "BOSTON NECK OPP GILBERT STUART",
    "stop_desc": "",
    "stop_lat": 41.538759,
    "stop_lon": -71.438657,
    "zone_id": "",
    "stop_url": "",
    "location_type": 0,
    "parent_station": "",
    "stop_associated_place": ""
  },
  {
    "stop_id": 2510,
    "stop_code": "",
    "stop_name": "BOSTON NECK NS GILBERT STUART",
    "stop_desc": "",
    "stop_lat": 41.538893,
    "stop_lon": -71.438993,
    "zone_id": "",
    "stop_url": "",
    "location_type": 0,
    "parent_station": "",
    "stop_associated_place": ""
  },
  {
    "stop_id": 2515,
    "stop_code": "",
    "stop_name": "W MAIN OPP 1522 W MAIN",
    "stop_desc": "",
    "stop_lat": 41.539573,
    "stop_lon": -71.291406,
    "zone_id": "",
    "stop_url": "",
    "location_type": 0,
    "parent_station": "",
    "stop_associated_place": ""
  },
  {
    "stop_id": 2520,
    "stop_code": "",
    "stop_name": "W MAIN NS SQUANTUM",
    "stop_desc": "",
    "stop_lat": 41.540952,
    "stop_lon": -71.291684,
    "zone_id": "",
    "stop_url": "",
    "location_type": 0,
    "parent_station": "",
    "stop_associated_place": ""
  },
  {
    "stop_id": 2525,
    "stop_code": "",
    "stop_name": "E MAIN NS WOODLAND",
    "stop_desc": "",
    "stop_lat": 41.541306,
    "stop_lon": -71.263527,
    "zone_id": "",
    "stop_url": "",
    "location_type": 0,
    "parent_station": "",
    "stop_associated_place": ""
  },
  {
    "stop_id": 2530,
    "stop_code": "",
    "stop_name": "E MAIN OPP RANDALL",
    "stop_desc": "",
    "stop_lat": 41.540816,
    "stop_lon": -71.264004,
    "zone_id": "",
    "stop_url": "",
    "location_type": 0,
    "parent_station": "",
    "stop_associated_place": ""
  },
  {
    "stop_id": 2535,
    "stop_code": "",
    "stop_name": "W MAIN OPP SQUANTUM",
    "stop_desc": "",
    "stop_lat": 41.540978,
    "stop_lon": -71.291483,
    "zone_id": "",
    "stop_url": "",
    "location_type": 0,
    "parent_station": "",
    "stop_associated_place": ""
  },
  {
    "stop_id": 2540,
    "stop_code": "",
    "stop_name": "E MAIN FS PAQUINS",
    "stop_desc": "",
    "stop_lat": 41.54479,
    "stop_lon": -71.261351,
    "zone_id": "",
    "stop_url": "",
    "location_type": 0,
    "parent_station": "",
    "stop_associated_place": ""
  },
  {
    "stop_id": 2545,
    "stop_code": "",
    "stop_name": "E MAIN FS SELINA",
    "stop_desc": "",
    "stop_lat": 41.545418,
    "stop_lon": -71.260693,
    "zone_id": "",
    "stop_url": "",
    "location_type": 0,
    "parent_station": "",
    "stop_associated_place": ""
  },
  {
    "stop_id": 2550,
    "stop_code": "",
    "stop_name": "W MAIN NS THELMA",
    "stop_desc": "",
    "stop_lat": 41.543549,
    "stop_lon": -71.29165,
    "zone_id": "",
    "stop_url": "",
    "location_type": 0,
    "parent_station": "",
    "stop_associated_place": ""
  },
  {
    "stop_id": 2555,
    "stop_code": "",
    "stop_name": "BOSTON NECK FS WEAVER (southern intersection)",
    "stop_desc": "",
    "stop_lat": 41.54374,
    "stop_lon": -71.441227,
    "zone_id": "",
    "stop_url": "",
    "location_type": 0,
    "parent_station": "",
    "stop_associated_place": ""
  },
  {
    "stop_id": 2560,
    "stop_code": "",
    "stop_name": "BOSTON NECK OPP WEAVER",
    "stop_desc": "",
    "stop_lat": 41.54407,
    "stop_lon": -71.441132,
    "zone_id": "",
    "stop_url": "",
    "location_type": 0,
    "parent_station": "",
    "stop_associated_place": ""
  },
  {
    "stop_id": 2565,
    "stop_code": "",
    "stop_name": "W MAIN FS MARSHALL",
    "stop_desc": "",
    "stop_lat": 41.545132,
    "stop_lon": -71.291846,
    "zone_id": "",
    "stop_url": "",
    "location_type": 0,
    "parent_station": "",
    "stop_associated_place": ""
  },
  {
    "stop_id": 2570,
    "stop_code": "",
    "stop_name": "OXBOW APARTMENTS",
    "stop_desc": "",
    "stop_lat": 41.543702,
    "stop_lon": -71.292799,
    "zone_id": "",
    "stop_url": "",
    "location_type": 0,
    "parent_station": "",
    "stop_associated_place": "oxbo"
  },
  {
    "stop_id": 2575,
    "stop_code": "",
    "stop_name": "E MAIN AT AQUIDNECK CHRISTIAN ACADEMY",
    "stop_desc": "",
    "stop_lat": 41.546436,
    "stop_lon": -71.259947,
    "zone_id": "",
    "stop_url": "",
    "location_type": 0,
    "parent_station": "",
    "stop_associated_place": ""
  },
  {
    "stop_id": 2585,
    "stop_code": "",
    "stop_name": "RT 4 FS W ALLENTON",
    "stop_desc": "",
    "stop_lat": 41.545562,
    "stop_lon": -71.477161,
    "zone_id": "",
    "stop_url": "",
    "location_type": 0,
    "parent_station": "",
    "stop_associated_place": ""
  },
  {
    "stop_id": 2595,
    "stop_code": "",
    "stop_name": "W MAIN AT 1776 W MAIN",
    "stop_desc": "",
    "stop_lat": 41.546547,
    "stop_lon": -71.292033,
    "zone_id": "",
    "stop_url": "",
    "location_type": 0,
    "parent_station": "",
    "stop_associated_place": ""
  },
  {
    "stop_id": 2600,
    "stop_code": "",
    "stop_name": "W MAIN AT 1761 W MAIN",
    "stop_desc": "",
    "stop_lat": 41.546223,
    "stop_lon": -71.291778,
    "zone_id": "",
    "stop_url": "",
    "location_type": 0,
    "parent_station": "",
    "stop_associated_place": ""
  },
  {
    "stop_id": 2605,
    "stop_code": "",
    "stop_name": "W MAIN NS GREENE",
    "stop_desc": "",
    "stop_lat": 41.548501,
    "stop_lon": -71.29217,
    "zone_id": "",
    "stop_url": "",
    "location_type": 0,
    "parent_station": "",
    "stop_associated_place": "grla"
  },
  {
    "stop_id": 2610,
    "stop_code": "",
    "stop_name": "BOSTON NECK FS WEAVER & HAMILTON ALLENTON",
    "stop_desc": "",
    "stop_lat": 41.548186,
    "stop_lon": -71.441464,
    "zone_id": "",
    "stop_url": "",
    "location_type": 0,
    "parent_station": "",
    "stop_associated_place": ""
  },
  {
    "stop_id": 2615,
    "stop_code": "",
    "stop_name": "BOSTON NECK NS SALISBURY",
    "stop_desc": "",
    "stop_lat": 41.548244,
    "stop_lon": -71.441313,
    "zone_id": "",
    "stop_url": "",
    "location_type": 0,
    "parent_station": "",
    "stop_associated_place": ""
  },
  {
    "stop_id": 2620,
    "stop_code": "",
    "stop_name": "W MAIN NS PASTURE FARMS",
    "stop_desc": "",
    "stop_lat": 41.54818,
    "stop_lon": -71.291973,
    "zone_id": "",
    "stop_url": "",
    "location_type": 0,
    "parent_station": "",
    "stop_associated_place": "grla"
  },
  {
    "stop_id": 2625,
    "stop_code": "",
    "stop_name": "E MAIN NS SANDY POINT",
    "stop_desc": "",
    "stop_lat": 41.550809,
    "stop_lon": -71.25766,
    "zone_id": "",
    "stop_url": "",
    "location_type": 0,
    "parent_station": "",
    "stop_associated_place": ""
  },
  {
    "stop_id": 2630,
    "stop_code": "",
    "stop_name": "E MAIN OPP SANDY POINT",
    "stop_desc": "",
    "stop_lat": 41.550787,
    "stop_lon": -71.257789,
    "zone_id": "",
    "stop_url": "",
    "location_type": 0,
    "parent_station": "",
    "stop_associated_place": ""
  },
  {
    "stop_id": 2640,
    "stop_code": "",
    "stop_name": "BOSTON NECK NS WALDRON",
    "stop_desc": "",
    "stop_lat": 41.552524,
    "stop_lon": -71.44077,
    "zone_id": "",
    "stop_url": "",
    "location_type": 0,
    "parent_station": "",
    "stop_associated_place": ""
  },
  {
    "stop_id": 2650,
    "stop_code": "",
    "stop_name": "BOSTON NECK OPP EARL",
    "stop_desc": "",
    "stop_lat": 41.55469,
    "stop_lon": -71.441097,
    "zone_id": "",
    "stop_url": "",
    "location_type": 0,
    "parent_station": "",
    "stop_associated_place": ""
  },
  {
    "stop_id": 2660,
    "stop_code": "",
    "stop_name": "BOSTON NECK OPP DUCK COVE",
    "stop_desc": "",
    "stop_lat": 41.557389,
    "stop_lon": -71.443037,
    "zone_id": "",
    "stop_url": "",
    "location_type": 0,
    "parent_station": "",
    "stop_associated_place": ""
  },
  {
    "stop_id": 2665,
    "stop_code": "",
    "stop_name": "E MAIN NS UNION",
    "stop_desc": "",
    "stop_lat": 41.558025,
    "stop_lon": -71.25534,
    "zone_id": "",
    "stop_url": "",
    "location_type": 0,
    "parent_station": "",
    "stop_associated_place": ""
  },
  {
    "stop_id": 2670,
    "stop_code": "",
    "stop_name": "E MAIN AT 880 E MAIN",
    "stop_desc": "",
    "stop_lat": 41.558492,
    "stop_lon": -71.255379,
    "zone_id": "",
    "stop_url": "",
    "location_type": 0,
    "parent_station": "",
    "stop_associated_place": ""
  },
  {
    "stop_id": 2675,
    "stop_code": "",
    "stop_name": "BOSTON NECK FS EARLE",
    "stop_desc": "",
    "stop_lat": 41.554835,
    "stop_lon": -71.440886,
    "zone_id": "",
    "stop_url": "",
    "location_type": 0,
    "parent_station": "",
    "stop_associated_place": ""
  },
  {
    "stop_id": 2680,
    "stop_code": "",
    "stop_name": "BOSTON NECK AT 429 BOSTON NECK",
    "stop_desc": "",
    "stop_lat": 41.558567,
    "stop_lon": -71.443893,
    "zone_id": "",
    "stop_url": "",
    "location_type": 0,
    "parent_station": "",
    "stop_associated_place": ""
  },
  {
    "stop_id": 2685,
    "stop_code": "",
    "stop_name": "W MAIN NS UNION",
    "stop_desc": "",
    "stop_lat": 41.558869,
    "stop_lon": -71.287668,
    "zone_id": "",
    "stop_url": "",
    "location_type": 0,
    "parent_station": "",
    "stop_associated_place": ""
  },
  {
    "stop_id": 2695,
    "stop_code": "",
    "stop_name": "BOSTON NECK FS DUCK COVE",
    "stop_desc": "",
    "stop_lat": 41.557598,
    "stop_lon": -71.442932,
    "zone_id": "",
    "stop_url": "",
    "location_type": 0,
    "parent_station": "",
    "stop_associated_place": ""
  },
  {
    "stop_id": 2700,
    "stop_code": "",
    "stop_name": "BOSTON NECK AT 392 BOSTON NECK",
    "stop_desc": "",
    "stop_lat": 41.559494,
    "stop_lon": -71.444361,
    "zone_id": "",
    "stop_url": "",
    "location_type": 0,
    "parent_station": "",
    "stop_associated_place": ""
  },
  {
    "stop_id": 2705,
    "stop_code": "",
    "stop_name": "BOSTON NECK NS FAIRWAY",
    "stop_desc": "",
    "stop_lat": 41.560443,
    "stop_lon": -71.445238,
    "zone_id": "",
    "stop_url": "",
    "location_type": 0,
    "parent_station": "",
    "stop_associated_place": ""
  },
  {
    "stop_id": 2710,
    "stop_code": "",
    "stop_name": "W MAIL OPP MAIL COACH",
    "stop_desc": "",
    "stop_lat": 41.560639,
    "stop_lon": -71.286754,
    "zone_id": "",
    "stop_url": "",
    "location_type": 0,
    "parent_station": "",
    "stop_associated_place": ""
  },
  {
    "stop_id": 2715,
    "stop_code": "",
    "stop_name": "E MAIN NS GLEN",
    "stop_desc": "",
    "stop_lat": 41.56101,
    "stop_lon": -71.25419,
    "zone_id": "",
    "stop_url": "",
    "location_type": 0,
    "parent_station": "",
    "stop_associated_place": ""
  },